X,Y,OBJECTID,source,ext_id,cat1,cat2,cat3,org_name,Name,addrln1,addrln2,city,state,hours,phones,email,url,info1,info2,post_id,description,zip,link,use_type,latitude,longitude,date_updated,dis_status,POINT_X,POINT_Y
-118.465431055888047,34.053710966485795,143607782,HSIP Freedom Alternative_Fueling_Stations,,Transportation,Alternative Fuel,BioDiesel Fueling Stations,National Transportation Atlas Database (NTAD) 2009,Conserv Fuel,11699 San Vicente Boulevard,,Brentwood,CA,24 hours daily,310-571-0039,,,Operational,,4641,,90049,http://egis3.lacounty.gov/lms/?p=4641,publish,34.053711,-118.465431,2010-11-01T19:50:56.000Z,,6420688.60272822,1842253.25507447
-118.184720055873854,33.958213967257983,143607783,HSIP Freedom Alternative_Fueling_Stations,,Transportation,Alternative Fuel,BioDiesel Fueling Stations,National Transportation Atlas Database (NTAD) 2009,"Spirit Truck Stop - Itl Incorporated (Cudahy Fuelstop, Itl Corporation)",8330 Atlantic Avenue,,Cudahy,CA,"7am-7pm M-F, 7am-12pm Sat",800-448-5485  3,,,Operational,,4642,,90201,http://egis3.lacounty.gov/lms/?p=4642,publish,33.958214,-118.18472,2010-11-01T19:50:56.000Z,,6505653.54598697,1807225.02296573
-118.431689055733372,33.984868966912273,143607784,HSIP Freedom Alternative_Fueling_Stations,,Transportation,Alternative Fuel,BioDiesel Fueling Stations,National Transportation Atlas Database (NTAD) 2009,Usa Gasoline,4395 Glencoe Avenue,,Marina Del Rey,CA,24 hours daily,310-822-4663,,,Operational,,4643,,90292,http://egis3.lacounty.gov/lms/?p=4643,publish,33.984869,-118.431689,2010-11-01T19:50:56.000Z,,6430801.59004813,1817154.88893273
-118.524788056093129,34.045364967033564,143607785,HSIP Freedom Alternative_Fueling_Stations,,Transportation,Alternative Fuel,BioDiesel Fueling Stations,National Transportation Atlas Database (NTAD) 2009,Palisades Gas & Wash,890 Alma Real Road,,Pacific Palisades,CA,"8am-6pm M-F, closed when raining",310-459-9181,,,Operational,,4644,,90272,http://egis3.lacounty.gov/lms/?p=4644,publish,34.045365,-118.524788,2010-11-01T19:50:56.000Z,,6402693.32310206,1839304.58446264
-118.49042805589221,34.025501966766349,143607786,HSIP Freedom Alternative_Fueling_Stations,,Transportation,Alternative Fuel,BioDiesel Fueling Stations,National Transportation Atlas Database (NTAD) 2009,La Biofuel,1217 Wilshire Boulevard,,Santa Monica,CA,8am-5pm M-F,310-396-5310,,,Operational,,4645,,90408,http://egis3.lacounty.gov/lms/?p=4645,publish,34.025502,-118.490428,2010-11-01T19:50:56.000Z,,6413066.83942847,1832023.56818481
-117.924864056622894,34.138402967360229,143607787,HSIP Freedom Alternative_Fueling_Stations,,Transportation,Alternative Fuel,Compressed Natural Gas Fueling Stations,National Transportation Atlas Database (NTAD) 2009,Socalgas - Azusa Base,950 N Todd Avenue,,Azusa,CA,24 hours daily,800-427-2000,,,Operational,,4646,,91702,http://egis3.lacounty.gov/lms/?p=4646,publish,34.138403,-117.924864,2010-11-01T19:50:56.000Z,,6584406.4941238,1872756.37418623
-118.116795056855366,33.894280967542848,143607788,HSIP Freedom Alternative_Fueling_Stations,,Transportation,Alternative Fuel,Compressed Natural Gas Fueling Stations,National Transportation Atlas Database (NTAD) 2009,California Clean Fuels,15330 Woodruff Avenue,,Bellflower,CA,24 hours daily,562-923-5441,,,Operational,,4647,,90706,http://egis3.lacounty.gov/lms/?p=4647,publish,33.894281,-118.116795,2010-11-01T19:50:56.000Z,,6526224.92019847,1783927.48589948
-118.319582055812845,34.182447966838865,143607789,HSIP Freedom Alternative_Fueling_Stations,,Transportation,Alternative Fuel,Compressed Natural Gas Fueling Stations,National Transportation Atlas Database (NTAD) 2009,City Of Burbank - Clean Energy,810 N Lake Street,,Burbank,CA,24 hours daily,562-493-2804,,,Operational,,4648,,91502,http://egis3.lacounty.gov/lms/?p=4648,publish,34.182448,-118.319582,2010-11-01T19:50:56.000Z,,6465015.87168506,1888930.29885931
-118.597448055319603,34.210255966375279,143607790,HSIP Freedom Alternative_Fueling_Stations,,Transportation,Alternative Fuel,Compressed Natural Gas Fueling Stations,National Transportation Atlas Database (NTAD) 2009,Socal Gas - Clean Energy,7711 Canoga Avenue,,Canoga Park,CA,24 hours daily,562-493-2804,,,Operational,,4649,,91303,http://egis3.lacounty.gov/lms/?p=4649,publish,34.210256,-118.597448,2010-11-01T19:50:56.000Z,,6381038.92218523,1899433.2936013
-118.206891056802718,33.900314967528622,143607791,HSIP Freedom Alternative_Fueling_Stations,,Transportation,Alternative Fuel,Compressed Natural Gas Fueling Stations,National Transportation Atlas Database (NTAD) 2009,Socalgas - Compton Base,701 N Bullis Road,,Compton,CA,24 hours daily,800-427-2000,,,Operational,,4651,,90221,http://egis3.lacounty.gov/lms/?p=4651,publish,33.900315,-118.206891,2010-11-01T19:50:56.000Z,,6498886.77736831,1786167.41875556
-117.881284056702626,34.090857967008269,143607792,HSIP Freedom Alternative_Fueling_Stations,,Transportation,Alternative Fuel,Compressed Natural Gas Fueling Stations,National Transportation Atlas Database (NTAD) 2009,City Of Covina - Covina Public Works Yard,534 North Barranca Avenue,,Covina,CA,"7am-4:30pm M-Th, 7am-3:30pm alternating Fridays",626-858-7294,,,Operational,,4652,,91723,http://egis3.lacounty.gov/lms/?p=4652,publish,34.090858,-117.881284,2010-11-01T19:50:56.000Z,,6597614.24100222,1855466.59413332
-117.83030505726984,34.000146967379273,143607793,HSIP Freedom Alternative_Fueling_Stations,,Transportation,Alternative Fuel,Compressed Natural Gas Fueling Stations,National Transportation Atlas Database (NTAD) 2009,South Coast Air Quality Management District,21865 E Copley Drive,,Diamond Bar,CA,"8am-5pm T-F, contact station to obtain card key",432-694-0202  4,,,Operational,,4653,,91765,http://egis3.lacounty.gov/lms/?p=4653,publish,34.000147,-117.830305,2010-11-01T19:50:56.000Z,,6613104.98856397,1822477.2746134
-118.119023056123211,33.933087966964685,143607794,HSIP Freedom Alternative_Fueling_Stations,,Transportation,Alternative Fuel,Compressed Natural Gas Fueling Stations,National Transportation Atlas Database (NTAD) 2009,Socalgas - Downey Base,9240 E Firestone Boulevard,,Downey,CA,24 hours daily,800-427-2000,,,Operational,,4654,,90241,http://egis3.lacounty.gov/lms/?p=4654,publish,33.933088,-118.119023,2010-11-01T19:50:56.000Z,,6525565.48057248,1798051.0262219
-118.152787056763955,34.690910965951225,143607795,HSIP Freedom Alternative_Fueling_Stations,,Transportation,Alternative Fuel,Compressed Natural Gas Fueling Stations,National Transportation Atlas Database (NTAD) 2009,Antelope Valley School Bus Transit,670 West 7Th Street,,Lancaster,CA,24 hours daily,661-940-4551,,,Operational,,4655,,93534,http://egis3.lacounty.gov/lms/?p=4655,publish,34.690911,-118.152787,2010-11-01T19:50:56.000Z,,6515742.58552013,2073852.46641581
-118.130712057804672,34.68971096623487,143607796,HSIP Freedom Alternative_Fueling_Stations,,Transportation,Alternative Fuel,Compressed Natural Gas Fueling Stations,National Transportation Atlas Database (NTAD) 2009,Southern California Gas Company,44416 N Division Street,,Lancaster,CA,"24 hours daily, Pinnacle card required",432-686-6487,,,Operational,,4656,,93535,http://egis3.lacounty.gov/lms/?p=4656,publish,34.689711,-118.130712,2010-11-01T19:50:56.000Z,,6522377.75236788,2073406.39250481
-118.196296056083725,33.769409967210414,143607797,HSIP Freedom Alternative_Fueling_Stations,,Transportation,Alternative Fuel,Compressed Natural Gas Fueling Stations,National Transportation Atlas Database (NTAD) 2009,Downtown Long Beach,400 West Broadway,,Long Beach,CA,24 hours daily,562-493-2804,,,Operational,,4658,,90802,http://egis3.lacounty.gov/lms/?p=4658,publish,33.76941,-118.196296,2010-11-01T19:50:56.000Z,,6502008.92171456,1738521.33753873
-118.163488056208976,33.81183396757303,143607798,HSIP Freedom Alternative_Fueling_Stations,,Transportation,Alternative Fuel,Compressed Natural Gas Fueling Stations,National Transportation Atlas Database (NTAD) 2009,Long Beach Airport,2400 East Spring Street,,Long Beach,CA,24 hours daily,562-493-2804,,,Operational,,4659,,90806,http://egis3.lacounty.gov/lms/?p=4659,publish,33.811834,-118.163488,2010-11-01T19:50:56.000Z,,6512005.55362414,1753942.74501607
-118.378404055832462,33.940805966927044,143607799,HSIP Freedom Alternative_Fueling_Stations,,Transportation,Alternative Fuel,Compressed Natural Gas Fueling Stations,National Transportation Atlas Database (NTAD) 2009,Los Angeles Airport - Clean Energy,10400 Aviation Boulevard,,Los Angeles,CA,24 hours daily,562-493-2804,,,Operational,,4660,,90045,http://egis3.lacounty.gov/lms/?p=4660,publish,33.940806,-118.378404,2010-11-01T19:50:56.000Z,,6446894.76422656,1801054.43885022
-118.23531905601655,34.064596967110447,143607800,HSIP Freedom Alternative_Fueling_Stations,,Transportation,Alternative Fuel,Compressed Natural Gas Fueling Stations,National Transportation Atlas Database (NTAD) 2009,Downtown Los Angeles - Clean Energy,1055 N Alameda Street,,Los Angeles,CA,24 hours daily,562-493-2804,,,Operational,,4661,,90012,http://egis3.lacounty.gov/lms/?p=4661,publish,34.064597,-118.235319,2010-11-01T19:50:56.000Z,,6490399.93541814,1845971.91003872
-118.137752057105942,34.591885966012782,143607801,HSIP Freedom Alternative_Fueling_Stations,,Transportation,Alternative Fuel,Compressed Natural Gas Fueling Stations,National Transportation Atlas Database (NTAD) 2009,Robertson'S Palmdale Honda,455 Auto Vista Drive,,Palmdale,CA,"7am-7pm M-F, 7am-6pm Sat",661-265-6000,,,Operational,,4662,,93551,http://egis3.lacounty.gov/lms/?p=4662,publish,34.591886,-118.137752,2010-11-01T19:50:56.000Z,,6520212.71339089,2037807.96206139
-118.077075056485597,34.150084966556612,143607802,HSIP Freedom Alternative_Fueling_Stations,,Transportation,Alternative Fuel,Compressed Natural Gas Fueling Stations,National Transportation Atlas Database (NTAD) 2009,City Of Pasadena - Clean Energy,3528 E Foothill Boulevard,,Pasadena,CA,24 hours daily,562-493-2804,,,Operational,,4663,,91107,http://egis3.lacounty.gov/lms/?p=4663,publish,34.150085,-118.077075,2010-11-01T19:50:56.000Z,,6538350.67809914,1877008.10813682
-118.105179056750913,34.149625966570525,143607803,HSIP Freedom Alternative_Fueling_Stations,,Transportation,Alternative Fuel,Compressed Natural Gas Fueling Stations,National Transportation Atlas Database (NTAD) 2009,Weststart-Calstart,2181 E Foothill Boulevard,,Pasadena,CA,,626-744-5600,,,Operational,,4664,,91107,http://egis3.lacounty.gov/lms/?p=4664,publish,34.149626,-118.105179,2010-11-01T19:50:56.000Z,,6529847.41918705,1876848.77807489
-118.106208056792767,33.968056966887474,143607804,HSIP Freedom Alternative_Fueling_Stations,,Transportation,Alternative Fuel,Compressed Natural Gas Fueling Stations,National Transportation Atlas Database (NTAD) 2009,Socalgas - Pico Rivera Base,8101 S Rosemead Boulevard,,Pico Rivera,CA,6am-5pm M-F,800-427-2000,,,Operational,,4665,,90660,http://egis3.lacounty.gov/lms/?p=4665,publish,33.968057,-118.106208,2010-11-01T19:50:56.000Z,,6529466.2713273,1810772.64546365
-117.724096057082377,34.058005966947995,143607805,HSIP Freedom Alternative_Fueling_Stations,,Transportation,Alternative Fuel,Compressed Natural Gas Fueling Stations,National Transportation Atlas Database (NTAD) 2009,Foothill Transit - City Of Pomona,200 East End Avenue,,Pomona,CA,24 hours daily,562-493-2804,,,Operational,,4666,,91766,http://egis3.lacounty.gov/lms/?p=4666,publish,34.058006,-117.724096,2010-11-01T19:50:56.000Z,,6645239.13984673,1843604.59292297
-118.293888056390117,33.758850967045497,143607806,HSIP Freedom Alternative_Fueling_Stations,,Transportation,Alternative Fuel,Compressed Natural Gas Fueling Stations,National Transportation Atlas Database (NTAD) 2009,Socalgas - San Pedro Base,755 W Capitol Drive,,San Pedro,CA,24 hours daily,800-427-2000,,,Operational,,4667,,90731,http://egis3.lacounty.gov/lms/?p=4667,publish,33.758851,-118.293888,2010-11-01T19:50:56.000Z,,6472336.0391313,1734750.95006639
-118.558731056161776,34.400321965848093,143607807,HSIP Freedom Alternative_Fueling_Stations,,Transportation,Alternative Fuel,Compressed Natural Gas Fueling Stations,National Transportation Atlas Database (NTAD) 2009,City Of Santa Clarita/Clean Energy,28273 Alta Vista Drive,,Santa Clarita,CA,24 hours daily,661-295-6300,,,Operational,,4668,,91355,http://egis3.lacounty.gov/lms/?p=4668,publish,34.400322,-118.558731,2010-11-01T19:50:56.000Z,,6393128.9022703,1968533.48020381
-118.46765205632623,34.031416966889559,143607808,HSIP Freedom Alternative_Fueling_Stations,,Transportation,Alternative Fuel,Compressed Natural Gas Fueling Stations,National Transportation Atlas Database (NTAD) 2009,Socal Gas - Clean Energy,1701 Stewart Street,,Santa Monica,CA,24 hours daily,562-493-2804,,,Operational,,4669,,90404,http://egis3.lacounty.gov/lms/?p=4669,publish,34.031417,-118.467652,2010-11-01T19:50:56.000Z,,6419978.10775813,1834143.2414389
-118.492331056034445,34.201051966092805,143607809,HSIP Freedom Alternative_Fueling_Stations,,Transportation,Alternative Fuel,Compressed Natural Gas Fueling Stations,National Transportation Atlas Database (NTAD) 2009,Socalgas - Van Nuys Base,16461 Sherman Way,,Van Nuys,CA,24 hours daily,800-427-2000,,,Operational,,4670,,91406,http://egis3.lacounty.gov/lms/?p=4670,publish,34.201052,-118.492331,2010-11-01T19:50:56.000Z,,6412803.1286698,1895911.5529414
-118.044730056169669,33.954797967014201,143607810,HSIP Freedom Alternative_Fueling_Stations,,Transportation,Alternative Fuel,Compressed Natural Gas Fueling Stations,National Transportation Atlas Database (NTAD) 2009,Whittier School District,13200 Mulberry Drive,,Whittier,CA,"24 hours daily, SoCalGas Card required",800-427-2000,,,Operational,,4671,,90602,http://egis3.lacounty.gov/lms/?p=4671,publish,33.954798,-118.04473,2010-11-01T19:50:56.000Z,,6548105.29015155,1805933.41596889
-118.28414624610275,33.807242260064179,143663035,LA County Sanitation Districts,,Transportation,Alternative Fuel,Compressed Natural Gas Fueling Stations,Sanitation Districts of Los Angeles County,JWPCP Compressed Natural Gas Fueling Facility,23924 Figueroa Street,,Carson,CA,24 hours daily,562-493-2804,,www.lacsd.org,,,4650,"The JWPCP CNG facility provides an alternative fueling facility for local customers such as the City of Carson, Palos Verdes Peninsula Transit Authority, Yellow Cab, and the general public. It is a self service station that is open 24-hours per day. Purchases can be made by credit card only.",90745,http://egis3.lacounty.gov/lms/?p=4650,publish,33.80724229,-118.28414619,2011-05-02T11:22:50.000Z,,6475347.07018273,1752353.31938915
-118.148425056179391,34.087917966825508,143607811,HSIP Freedom Alternative_Fueling_Stations,,Transportation,Alternative Fuel,Electricity Fueling Stations,National Transportation Atlas Database (NTAD) 2009,Costco,2207 West Commonwealth Avenue,,Alhambra,CA,24 hours daily,,,,Operational,,4672,,91803,http://egis3.lacounty.gov/lms/?p=4672,publish,34.087918,-118.148425,2010-11-01T19:50:56.000Z,,6516729.77973998,1854408.62249598
-118.050238057145847,34.143572966901132,143607812,HSIP Freedom Alternative_Fueling_Stations,,Transportation,Alternative Fuel,Electricity Fueling Stations,National Transportation Atlas Database (NTAD) 2009,Los Angeles County Arboretum,301 N Baldwin Avenue,,Arcadia,CA,24 hours daily,,,,Operational,,4673,,91006,http://egis3.lacounty.gov/lms/?p=4673,publish,34.143573,-118.050238,2010-11-01T19:50:56.000Z,,6546469.23863363,1874633.13093139
-118.02737205657715,34.144407967126753,143607813,HSIP Freedom Alternative_Fueling_Stations,,Transportation,Alternative Fuel,Electricity Fueling Stations,National Transportation Atlas Database (NTAD) 2009,Clean Fuel Connection Incorporated,127 La Porte,,Arcadia,CA,24 hours daily,,,,Operational,,4674,,91006,http://egis3.lacounty.gov/lms/?p=4674,publish,34.144408,-118.027372,2010-11-01T19:50:56.000Z,,6553388.14933647,1874934.33210064
-117.925553057494113,34.133442966810669,143607814,HSIP Freedom Alternative_Fueling_Stations,,Transportation,Alternative Fuel,Electricity Fueling Stations,National Transportation Atlas Database (NTAD) 2009,Costco,1220 W Foothill Boulevard,,Azusa,CA,24 hours daily,626-812-7901,,,Operational,,4675,,91702,http://egis3.lacounty.gov/lms/?p=4675,publish,34.133443,-117.925553,2010-11-01T19:50:56.000Z,,6584199.33935438,1870951.18422706
-117.960552056771377,34.08513996738688,143607815,HSIP Freedom Alternative_Fueling_Stations,,Transportation,Alternative Fuel,Electricity Fueling Stations,National Transportation Atlas Database (NTAD) 2009,Baldwin Park City Hall,14403 Pacific Avenue,,Baldwin Park,CA,24 hours daily,,,,Operational,,4676,,91706,http://egis3.lacounty.gov/lms/?p=4676,publish,34.08514,-117.960552,2010-11-01T19:50:56.000Z,,6573614.90776739,1853366.82274231
-117.957610057076806,34.085837967460591,143607816,HSIP Freedom Alternative_Fueling_Stations,,Transportation,Alternative Fuel,Electricity Fueling Stations,National Transportation Atlas Database (NTAD) 2009,Baldwin Park Metrolink - Lot 2,3875 Downing Street,,Baldwin Park,CA,24 hours daily,800-266-6883,,,Operational,,4677,,91706,http://egis3.lacounty.gov/lms/?p=4677,publish,34.085838,-117.95761,2010-11-01T19:50:56.000Z,,6574505.61760014,1853621.20084248
-118.412122056487263,34.067034966313486,143607817,HSIP Freedom Alternative_Fueling_Stations,,Transportation,Alternative Fuel,Electricity Fueling Stations,National Transportation Atlas Database (NTAD) 2009,Beverly Hilton Hotel  - Valet,9876 Wilshire Boulevard,,Beverly Hills,CA,"24 hours daily, pay lot",,,,Operational,,4678,,90210,http://egis3.lacounty.gov/lms/?p=4678,publish,34.067035,-118.412122,2010-11-01T19:50:56.000Z,,6436855.98902856,1847031.58836555
-118.397030056360975,34.07578396692778,143607818,HSIP Freedom Alternative_Fueling_Stations,,Transportation,Alternative Fuel,Electricity Fueling Stations,National Transportation Atlas Database (NTAD) 2009,Hilton Hotels And Resorts,9336 Civic Center Drive,,Beverly Hills,CA,24 hours daily,,,,Operational,,4679,,90210,http://egis3.lacounty.gov/lms/?p=4679,publish,34.075784,-118.39703,2010-11-01T19:50:56.000Z,,6441439.26988822,1850197.09548597
-118.34896005651197,34.195693966302841,143607819,HSIP Freedom Alternative_Fueling_Stations,,Transportation,Alternative Fuel,Electricity Fueling Stations,National Transportation Atlas Database (NTAD) 2009,Burbank Bob Hope Airport - Lot B,2606 Hollywood Way,,Burbank,CA,"24 hours daily, pay lot",,,,Operational,,4680,,91505,http://egis3.lacounty.gov/lms/?p=4680,publish,34.195694,-118.34896,2010-11-01T19:50:56.000Z,,6456147.55116713,1893780.2757079
-118.30791505650194,34.181611966242414,143607820,HSIP Freedom Alternative_Fueling_Stations,,Transportation,Alternative Fuel,Electricity Fueling Stations,National Transportation Atlas Database (NTAD) 2009,City Of Burbank,275 E Olive Avenue,,Burbank,CA,"7am-9pm M-F, 7am-7pm Sat",818-238-3575,,,Operational,,4681,,91505,http://egis3.lacounty.gov/lms/?p=4681,publish,34.181612,-118.307915,2010-11-01T19:50:56.000Z,,6468543.49848805,1888615.05080214
-118.311472056638721,34.184852966987094,143607821,HSIP Freedom Alternative_Fueling_Stations,,Transportation,Alternative Fuel,Electricity Fueling Stations,National Transportation Atlas Database (NTAD) 2009,Burbank Mall,501 N Third Street,,Burbank,CA,24 hours daily,,,,Operational,,4682,,91502,http://egis3.lacounty.gov/lms/?p=4682,publish,34.184853,-118.311472,2010-11-01T19:50:56.000Z,,6467471.3657898,1889797.81844972
-118.323262056141488,34.183670966612134,143607822,HSIP Freedom Alternative_Fueling_Stations,,Transportation,Alternative Fuel,Electricity Fueling Stations,National Transportation Atlas Database (NTAD) 2009,Costco,1051 Burbank Boulevard,,Burbank,CA,24 hours daily,,,,Operational,,4683,,91506,http://egis3.lacounty.gov/lms/?p=4683,publish,34.183671,-118.323262,2010-11-01T19:50:56.000Z,,6463904.32666406,1889378.92722714
-118.594804055389602,34.219684965909984,143607823,HSIP Freedom Alternative_Fueling_Stations,,Transportation,Alternative Fuel,Electricity Fueling Stations,National Transportation Atlas Database (NTAD) 2009,Costco,21300 Roscoe Boulevard,,Canoga Park,CA,24 hours daily,,,,Operational,,4684,,91304,http://egis3.lacounty.gov/lms/?p=4684,publish,34.219685,-118.594804,2010-11-01T19:50:56.000Z,,6381858.6000078,1902859.87598698
-118.261381056512008,33.831630967284461,143607824,HSIP Freedom Alternative_Fueling_Stations,,Transportation,Alternative Fuel,Electricity Fueling Stations,National Transportation Atlas Database (NTAD) 2009,City Of Carson - Community Center,801 East Carson Street,,Carson,CA,24 hours daily,,,,Operational,,4685,,90745,http://egis3.lacounty.gov/lms/?p=4685,publish,33.831631,-118.261381,2010-11-01T19:50:56.000Z,,6482286.17014964,1761210.21932623
-118.599385055709945,34.257205966052659,143607825,HSIP Freedom Alternative_Fueling_Stations,,Transportation,Alternative Fuel,Electricity Fueling Stations,National Transportation Atlas Database (NTAD) 2009,Chatsworth Metrolink Station,21510 Devonshire Street,Chatsworth,Chatsworth,CA,24 hours daily,,,,Operational,,4686,,91311,http://egis3.lacounty.gov/lms/?p=4686,publish,34.257206,-118.599385,2010-11-01T19:50:56.000Z,,6380555.18233906,1916522.43101089
-118.39781005583805,33.982596967243566,143607826,HSIP Freedom Alternative_Fueling_Stations,,Transportation,Alternative Fuel,Electricity Fueling Stations,National Transportation Atlas Database (NTAD) 2009,Radisson Hotel Westside,6161 Centinella Avenue,,Culver City,CA,24 hours daily,,,,Operational,,4687,,90230,http://egis3.lacounty.gov/lms/?p=4687,publish,33.982597,-118.39781,2010-11-01T19:50:56.000Z,,6441068.85494664,1816285.68955564
-117.83030505726984,34.000146967379273,143607827,HSIP Freedom Alternative_Fueling_Stations,,Transportation,Alternative Fuel,Electricity Fueling Stations,National Transportation Atlas Database (NTAD) 2009,South Coast Air Quality Manangement District,21865 E Copley Drive,,Diamond Bar,CA,24 hours daily,909-396-2045,,,Operational,,4688,,91765,http://egis3.lacounty.gov/lms/?p=4688,publish,34.000147,-117.830305,2010-11-01T19:50:56.000Z,,6613104.98856397,1822477.2746134
-118.156626056537405,33.948157966794852,143607828,HSIP Freedom Alternative_Fueling_Stations,,Transportation,Alternative Fuel,Electricity Fueling Stations,National Transportation Atlas Database (NTAD) 2009,Office Max - Home Depot,7075 Firestone Boulevard,,Downey,CA,24 hours daily,,,,Operational,,4689,,90240,http://egis3.lacounty.gov/lms/?p=4689,publish,33.948158,-118.156626,2010-11-01T19:50:56.000Z,,6514167.40920855,1803550.96502514
-118.061476057272472,34.069007967367639,143607829,HSIP Freedom Alternative_Fueling_Stations,,Transportation,Alternative Fuel,Electricity Fueling Stations,National Transportation Atlas Database (NTAD) 2009,California Air Resources Board,9540 Telstar Avenue,,El Monte,CA,24 hours daily,,,,Operational,,4690,,91731,http://egis3.lacounty.gov/lms/?p=4690,publish,34.069008,-118.061476,2010-11-01T19:50:56.000Z,,6543052.23365663,1847499.42863722
-118.036173057318706,34.076471966737707,143607830,HSIP Freedom Alternative_Fueling_Stations,,Transportation,Alternative Fuel,Electricity Fueling Stations,National Transportation Atlas Database (NTAD) 2009,El Monte Metrolink Station,10925 Railroad Avenue,,El Monte,CA,24 hours daily,,,,Operational,,4691,,91731,http://egis3.lacounty.gov/lms/?p=4691,publish,34.076472,-118.036173,2010-11-01T19:50:56.000Z,,6550716.2603233,1850211.9986714
-118.400607056268441,33.930643966868608,143607831,HSIP Freedom Alternative_Fueling_Stations,,Transportation,Alternative Fuel,Electricity Fueling Stations,National Transportation Atlas Database (NTAD) 2009,Embassy Suites - Los Angeles International Airport South,1440 E Imperial Avenue,,El Segundo,CA,24 hours daily,,,,Operational,,4692,,90245,http://egis3.lacounty.gov/lms/?p=4692,publish,33.930644,-118.400607,2010-11-01T19:50:56.000Z,,6440145.55954914,1797382.38648306
-118.491094056163774,34.157354966585032,143607832,HSIP Freedom Alternative_Fueling_Stations,,Transportation,Alternative Fuel,Electricity Fueling Stations,National Transportation Atlas Database (NTAD) 2009,Encino Market Place,16431 Ventura Boulevard,,Encino,CA,24 hours daily,,,,Operational,,4694,,91436,http://egis3.lacounty.gov/lms/?p=4694,publish,34.157355,-118.491094,2010-11-01T19:50:56.000Z,,6413099.46830022,1880007.78291173
-118.499684056339973,34.17215296605108,143607833,HSIP Freedom Alternative_Fueling_Stations,,Transportation,Alternative Fuel,Electricity Fueling Stations,National Transportation Atlas Database (NTAD) 2009,Encino Glen Golf Course,16821 Burbank Boulevard,,Encino,CA,24 hours daily,,,,Operational,,4695,,91436,http://egis3.lacounty.gov/lms/?p=4695,publish,34.172153,-118.499684,2010-11-01T19:50:56.000Z,,6410527.52396905,1885405.78491098
-117.865220057512744,34.135996967481702,143607834,HSIP Freedom Alternative_Fueling_Stations,,Transportation,Alternative Fuel,Electricity Fueling Stations,National Transportation Atlas Database (NTAD) 2009,Glendora City Hall Parking Lot,116 E Foothill Boulevard,,Glendora,CA,24 hours daily,,,,Operational,,4697,,91741,http://egis3.lacounty.gov/lms/?p=4697,publish,34.135997,-117.86522,2010-11-01T19:50:56.000Z,,6602455.94457339,1871899.63410181
-118.294129055607371,33.788742967664874,143607835,HSIP Freedom Alternative_Fueling_Stations,,Transportation,Alternative Fuel,Electricity Fueling Stations,National Transportation Atlas Database (NTAD) 2009,Kaiser Permanente - Harbor City,25825 Vermont Avenue,Harbor City,Harbor City,CA,24 hours daily,,,,Operational,,4698,,90710,http://egis3.lacounty.gov/lms/?p=4698,publish,33.788743,-118.294129,2010-11-01T19:50:56.000Z,,6472294.61368921,1745629.67141914
-118.335122056155072,34.101869966769257,143607836,HSIP Freedom Alternative_Fueling_Stations,,Transportation,Alternative Fuel,Electricity Fueling Stations,National Transportation Atlas Database (NTAD) 2009,Cherokee-Whitley Garage,1710 N Cherokee Avenue,,Hollywood,CA,"24 hours daily, pay lot",,,,Operational,,4699,,90028,http://egis3.lacounty.gov/lms/?p=4699,publish,34.10187,-118.335122,2010-11-01T19:50:56.000Z,,6460218.20378697,1859621.95491706
-118.293004056137775,34.098178966758745,143607837,HSIP Freedom Alternative_Fueling_Stations,,Transportation,Alternative Fuel,Electricity Fueling Stations,National Transportation Atlas Database (NTAD) 2009,Kaiser Permanente - Sunset,4747 Sunset Boulevard,Los Feliz,Hollywood,CA,24 hours daily,,,,Operational,,4700,,90027,http://egis3.lacounty.gov/lms/?p=4700,publish,34.098179,-118.293004,2010-11-01T19:50:56.000Z,,6472964.71241464,1858238.89862806
-117.923230057463812,33.99251596725729,143607838,HSIP Freedom Alternative_Fueling_Stations,,Transportation,Alternative Fuel,Electricity Fueling Stations,National Transportation Atlas Database (NTAD) 2009,Costco,17550 Castleton Street,,Industry,CA,24 hours daily,626-302-1873,,,Operational,,4701,,91748,http://egis3.lacounty.gov/lms/?p=4701,publish,33.992516,-117.92323,2010-11-01T19:50:56.000Z,,6584941.49370997,1819665.66507915
-117.933910057533041,34.123168967302675,143607839,HSIP Freedom Alternative_Fueling_Stations,,Transportation,Alternative Fuel,Electricity Fueling Stations,National Transportation Atlas Database (NTAD) 2009,Southern California Edison - Irwindale Service Station,6090 North Irwindale Avenue,,Irwindale,CA,24 hours daily,800-4EV-INFO,,,Operational,,4702,,91702,http://egis3.lacounty.gov/lms/?p=4702,publish,34.123169,-117.93391,2010-11-01T19:50:56.000Z,,6581672.81848881,1867210.51913622
-118.145101057482208,34.699009965611928,143607840,HSIP Freedom Alternative_Fueling_Stations,,Transportation,Alternative Fuel,Electricity Fueling Stations,National Transportation Atlas Database (NTAD) 2009,City Of Lancaster - City Hall,44933 Fern Avenue,,Lancaster,CA,24 hours daily,661-723-6000,,,Operational,,4704,,93534,http://egis3.lacounty.gov/lms/?p=4704,publish,34.69901,-118.145101,2010-11-01T19:50:56.000Z,,6518057.24788556,2076796.51728623
-118.192546056669457,33.764600967256818,143607841,HSIP Freedom Alternative_Fueling_Stations,,Transportation,Alternative Fuel,Electricity Fueling Stations,National Transportation Atlas Database (NTAD) 2009,Hyatt Regency Long Beach - Valet,200 South Pine Avenue,,Long Beach,CA,"24 hours daily, pay lot",,,,Operational,,4705,,90802,http://egis3.lacounty.gov/lms/?p=4705,publish,33.764601,-118.192546,2010-11-01T19:50:56.000Z,,6503145.32757822,1736769.00213264
-118.190474055820857,33.762319967604064,143607842,HSIP Freedom Alternative_Fueling_Stations,,Transportation,Alternative Fuel,Electricity Fueling Stations,National Transportation Atlas Database (NTAD) 2009,Long Beach Aquarium,220 W Shoreline Drive,,Long Beach,CA,"24 hours daily, pay lot",,,,Operational,,4706,,90802,http://egis3.lacounty.gov/lms/?p=4706,publish,33.76232,-118.190474,2010-11-01T19:50:56.000Z,,6503773.54548189,1735937.68161681
-118.108016056724068,33.791446967596173,143607843,HSIP Freedom Alternative_Fueling_Stations,,Transportation,Alternative Fuel,Electricity Fueling Stations,National Transportation Atlas Database (NTAD) 2009,Shell Station,1719 Palo Verde Avenue,,Long Beach,CA,24 hours daily,,,,Operational,,4707,,90815,http://egis3.lacounty.gov/lms/?p=4707,publish,33.791447,-118.108016,2010-11-01T19:50:56.000Z,,6528848.9910658,1746500.60602897
-118.197026056278233,33.770048967170979,143607844,HSIP Freedom Alternative_Fueling_Stations,,Transportation,Alternative Fuel,Electricity Fueling Stations,National Transportation Atlas Database (NTAD) 2009,Long Beach Hilton - Valet,2 World Trade Center,,Long Beach,CA,"24 hours daily, pay lot",,,,Operational,,4708,,90831,http://egis3.lacounty.gov/lms/?p=4708,publish,33.770049,-118.197026,2010-11-01T19:50:56.000Z,,6501787.50450647,1738754.32165281
-118.189390055863782,33.766857967732733,143607845,HSIP Freedom Alternative_Fueling_Stations,,Transportation,Alternative Fuel,Electricity Fueling Stations,National Transportation Atlas Database (NTAD) 2009,Long Beach Convention Center,300 E Ocean Boulevard,,Long Beach,CA,"24 hours daily, pay lot",,,,Operational,,4709,,90802,http://egis3.lacounty.gov/lms/?p=4709,publish,33.766858,-118.18939,2010-11-01T19:50:56.000Z,,6504106.15111588,1737588.56611031
-118.266627056530155,34.042092966691378,143607846,HSIP Freedom Alternative_Fueling_Stations,,Transportation,Alternative Fuel,Electricity Fueling Stations,National Transportation Atlas Database (NTAD) 2009,La Convention Center,1201 S Figueroa Street,,Los Angeles,CA,"24 hours daily, pay lot",,,,Operational,,4710,,90015,http://egis3.lacounty.gov/lms/?p=4710,publish,34.042093,-118.266627,2010-11-01T19:50:56.000Z,,6480896.06859913,1837805.97066198
-118.249687056663291,34.056723966525588,143607847,HSIP Freedom Alternative_Fueling_Stations,,Transportation,Alternative Fuel,Electricity Fueling Stations,National Transportation Atlas Database (NTAD) 2009,Ladwp Parking,111 N Hope Street,,Los Angeles,CA,24 hours daily,,,,Operational,,4711,,90012,http://egis3.lacounty.gov/lms/?p=4711,publish,34.056724,-118.249687,2010-11-01T19:50:56.000Z,,6486041.23186523,1843117.28024931
-118.385103055781542,34.030905966392979,143607848,HSIP Freedom Alternative_Fueling_Stations,,Transportation,Alternative Fuel,Electricity Fueling Stations,National Transportation Atlas Database (NTAD) 2009,Helms Bakery Building,8800 Venice Boulevard,,Los Angeles,CA,24 hours daily,,,,Operational,,4712,,90034,http://egis3.lacounty.gov/lms/?p=4712,publish,34.030906,-118.385103,2010-11-01T19:50:56.000Z,,6444988.48883964,1833851.18690489
-118.437182055926399,34.072386966901448,143607849,HSIP Freedom Alternative_Fueling_Stations,,Transportation,Alternative Fuel,Electricity Fueling Stations,National Transportation Atlas Database (NTAD) 2009,University Of California Los Angeles- Parking Lot 8,405 Hilgard Ave,,Los Angeles,CA,24 hours daily,,,,Operational,,4713,,90024,http://egis3.lacounty.gov/lms/?p=4713,publish,34.072387,-118.437182,2010-11-01T19:50:56.000Z,,6429274.89165796,1849011.32882865
-118.437182055926399,34.072386966901448,143607850,HSIP Freedom Alternative_Fueling_Stations,,Transportation,Alternative Fuel,Electricity Fueling Stations,National Transportation Atlas Database (NTAD) 2009,Ucla - Parking Lot 4,405 Hilgard Ave,,Los Angeles,CA,24 hours daily,,,,Operational,,4714,,90024,http://egis3.lacounty.gov/lms/?p=4714,publish,34.072387,-118.437182,2010-11-01T19:50:56.000Z,,6429274.89165796,1849011.32882865
-118.437182055926399,34.072386966901448,143607851,HSIP Freedom Alternative_Fueling_Stations,,Transportation,Alternative Fuel,Electricity Fueling Stations,National Transportation Atlas Database (NTAD) 2009,University Of California Los Angeles - Parking Lot 2,405 Hilgard Ave,,Los Angeles,CA,24 hours daily,,,,Operational,,4715,,90024,http://egis3.lacounty.gov/lms/?p=4715,publish,34.072387,-118.437182,2010-11-01T19:50:56.000Z,,6429274.89165796,1849011.32882865
-118.256790056507967,34.050843966608348,143607852,HSIP Freedom Alternative_Fueling_Stations,,Transportation,Alternative Fuel,Electricity Fueling Stations,National Transportation Atlas Database (NTAD) 2009,Bank Of America Tower,555 S Flower Street,Downtown,Los Angeles,CA,"24 hours daily, pay lot",,,,Operational,,4716,,90071,http://egis3.lacounty.gov/lms/?p=4716,publish,34.050844,-118.25679,2010-11-01T19:50:56.000Z,,6483884.30245206,1840982.86128981
-118.350665055706898,34.062165966507521,143607853,HSIP Freedom Alternative_Fueling_Stations,,Transportation,Alternative Fuel,Electricity Fueling Stations,National Transportation Atlas Database (NTAD) 2009,Ralph'S,5601 Wilshire Boulevard,Mid City,Los Angeles,CA,24 hours daily,,,,Operational,,4717,,90036,http://egis3.lacounty.gov/lms/?p=4717,publish,34.062166,-118.350665,2010-11-01T19:50:56.000Z,,6455462.45411214,1845189.05464906
-118.360909056542781,34.06289496640462,143607854,HSIP Freedom Alternative_Fueling_Stations,,Transportation,Alternative Fuel,Electricity Fueling Stations,National Transportation Atlas Database (NTAD) 2009,Peterson Automotive Museum,6060 Wilshire Boulevard,Mid City,Los Angeles,CA,24 hours daily,,,,Operational,,4718,,90036,http://egis3.lacounty.gov/lms/?p=4718,publish,34.062895,-118.360909,2010-11-01T19:50:56.000Z,,6452360.76182473,1845465.33198364
-118.242483056648808,34.053247967116782,143607855,HSIP Freedom Alternative_Fueling_Stations,,Transportation,Alternative Fuel,Electricity Fueling Stations,National Transportation Atlas Database (NTAD) 2009,Los Angeles City Hall East,200 N Main Street,,Los Angeles,CA,24 hours daily,,,,Operational,,4719,,90012,http://egis3.lacounty.gov/lms/?p=4719,publish,34.053248,-118.242483,2010-11-01T19:50:56.000Z,,6488220.23603739,1841846.9583149
-118.379272056421982,33.945341966564435,143607856,HSIP Freedom Alternative_Fueling_Stations,,Transportation,Alternative Fuel,Electricity Fueling Stations,National Transportation Atlas Database (NTAD) 2009,Hilton - Los Angeles International Airport,5711 West Century Boulevard,P5 By Elevator In Hotel,Los Angeles,CA,"24 hours daily, pay lot",,,,Operational,,4720,,90045,http://egis3.lacounty.gov/lms/?p=4720,publish,33.945342,-118.379272,2010-11-01T19:50:56.000Z,,6446637.71651231,1802706.16947064
-118.417823055660222,33.959707966578051,143607857,HSIP Freedom Alternative_Fueling_Stations,,Transportation,Alternative Fuel,Electricity Fueling Stations,National Transportation Atlas Database (NTAD) 2009,Hawthorne Savings,7151 West Manchester Boulevard,Lax,Los Angeles,CA,24 hours daily,,,,Operational,,4721,,90045,http://egis3.lacounty.gov/lms/?p=4721,publish,33.959708,-118.417823,2010-11-01T19:50:56.000Z,,6434967.05350196,1807980.58379056
-118.412418055997364,34.054486966567907,143607858,HSIP Freedom Alternative_Fueling_Stations,,Transportation,Alternative Fuel,Electricity Fueling Stations,National Transportation Atlas Database (NTAD) 2009,Century City Shopping Center,10250 Santa Monica Boulevard,Century City,Los Angeles,CA,24 hours daily,,,,Operational,,4722,,90067,http://egis3.lacounty.gov/lms/?p=4722,publish,34.054487,-118.412418,2010-11-01T19:50:56.000Z,,6436747.60801172,1842465.53516173
-118.408211055856555,33.944299967328419,143607859,HSIP Freedom Alternative_Fueling_Stations,,Transportation,Alternative Fuel,Electricity Fueling Stations,National Transportation Atlas Database (NTAD) 2009,Los Angeles International Airport (Lax) - Lot C,1 World Way,,Los Angeles,CA,24 hours daily,,,,Operational,,4723,,90045,http://egis3.lacounty.gov/lms/?p=4723,publish,33.9443,-118.408211,2010-11-01T19:50:56.000Z,,6437859.06904338,1802361.34732564
-118.248303055992906,34.056208966545057,143607860,HSIP Freedom Alternative_Fueling_Stations,,Transportation,Alternative Fuel,Electricity Fueling Stations,National Transportation Atlas Database (NTAD) 2009,Music Center Parking,135 N Grand Avenue,Downtown,Los Angeles,CA,24 hours daily,,,,Operational,,4724,,90012,http://egis3.lacounty.gov/lms/?p=4724,publish,34.056209,-118.248303,2010-11-01T19:50:56.000Z,,6486459.97577839,1842928.82393332
-118.287822055747043,34.022371967219819,143607861,HSIP Freedom Alternative_Fueling_Stations,,Transportation,Alternative Fuel,Electricity Fueling Stations,National Transportation Atlas Database (NTAD) 2009,University Of Southern California - Lot 6,941 W 35Th Street,,Los Angeles,CA,"24 hours daily, pay lot",213-367-4415,,,Operational,,4725,,90089,http://egis3.lacounty.gov/lms/?p=4725,publish,34.022372,-118.287822,2010-11-01T19:50:56.000Z,,6474454.54145597,1830646.84620073
-118.416814056365695,33.97030296669211,143607862,HSIP Freedom Alternative_Fueling_Stations,,Transportation,Alternative Fuel,Electricity Fueling Stations,National Transportation Atlas Database (NTAD) 2009,Loyola Marymount University,7900 Loyola Boulevard,,Los Angeles,CA,24 hours daily,,,,Operational,,4726,,90045,http://egis3.lacounty.gov/lms/?p=4726,publish,33.970303,-118.416814,2010-11-01T19:50:56.000Z,,6435289.01545647,1811835.02752523
-118.288793056675146,34.018064967299779,143607863,HSIP Freedom Alternative_Fueling_Stations,,Transportation,Alternative Fuel,Electricity Fueling Stations,National Transportation Atlas Database (NTAD) 2009,Natural History Museum,900 Exposition Boulevard,,Los Angeles,CA,24 hours daily,,,,Operational,,4728,,90012,http://egis3.lacounty.gov/lms/?p=4728,publish,34.018065,-118.288793,2010-11-01T19:50:56.000Z,,6474155.80648914,1829080.29290339
-118.291533056340597,33.961274966595653,143607864,HSIP Freedom Alternative_Fueling_Stations,,Transportation,Alternative Fuel,Electricity Fueling Stations,National Transportation Atlas Database (NTAD) 2009,Constituent Service Center,8475 S Vermont Avenue,,Los Angeles,CA,24 hours daily,,,,Operational,,4729,,90044,http://egis3.lacounty.gov/lms/?p=4729,publish,33.961275,-118.291533,2010-11-01T19:50:56.000Z,,6473265.55137989,1808415.71579431
-118.281168056471444,34.101834966885846,143607865,HSIP Freedom Alternative_Fueling_Stations,,Transportation,Alternative Fuel,Electricity Fueling Stations,National Transportation Atlas Database (NTAD) 2009,Prospect Studios,4151 Prospect Avenue,Los Feliz,Los Angeles,CA,"24 hours daily, see guard for temporary pass",,,,Operational,,4730,,90027,http://egis3.lacounty.gov/lms/?p=4730,publish,34.101835,-118.281168,2010-11-01T19:50:56.000Z,,6476551.71902014,1859559.14631565
-118.333074055846581,34.09792796680901,143607866,HSIP Freedom Alternative_Fueling_Stations,,Transportation,Alternative Fuel,Electricity Fueling Stations,National Transportation Atlas Database (NTAD) 2009,White Office Building,6565 Sunset Boulevard,,Los Angeles,CA,"24 hours daily, pay lot",,,,Operational,,4731,,90028,http://egis3.lacounty.gov/lms/?p=4731,publish,34.097928,-118.333074,2010-11-01T19:50:56.000Z,,6460833.44304205,1858185.33443072
-118.292115056205674,34.117561966706923,143607867,HSIP Freedom Alternative_Fueling_Stations,,Transportation,Alternative Fuel,Electricity Fueling Stations,National Transportation Atlas Database (NTAD) 2009,Greek Theater,2700 N Vermont Avenue,Griffith Park,Los Angeles,CA,24 hours daily,,,,Operational,,4732,,90027,http://egis3.lacounty.gov/lms/?p=4732,publish,34.117562,-118.292115,2010-11-01T19:50:56.000Z,,6473254.35127105,1865291.92061123
-118.169742056881447,34.062849966834349,143607868,HSIP Freedom Alternative_Fueling_Stations,,Transportation,Alternative Fuel,Electricity Fueling Stations,National Transportation Atlas Database (NTAD) 2009,Cal State La - Lot J,5151 State University Drive,East La,Los Angeles,CA,24 hours daily,,,,Operational,,4733,,90032,http://egis3.lacounty.gov/lms/?p=4733,publish,34.06285,-118.169742,2010-11-01T19:50:56.000Z,,6510259.95770589,1845296.12694147
-118.169742056881447,34.062849966834349,143607869,HSIP Freedom Alternative_Fueling_Stations,,Transportation,Alternative Fuel,Electricity Fueling Stations,National Transportation Atlas Database (NTAD) 2009,Cal State La - Lot G,5151 State University Drive,East La,Los Angeles,CA,"24 hours daily, pay lot",,,,Operational,,4734,,90032,http://egis3.lacounty.gov/lms/?p=4734,publish,34.06285,-118.169742,2010-11-01T19:50:56.000Z,,6510259.95770589,1845296.12694147
-118.408211055856555,33.944299967328419,143607870,HSIP Freedom Alternative_Fueling_Stations,,Transportation,Alternative Fuel,Electricity Fueling Stations,National Transportation Atlas Database (NTAD) 2009,Los Angeles International Airport (Lax) - Lot 6,1 World Way,,Los Angeles,CA,24 hours daily,,,,Operational,,4735,,90045,http://egis3.lacounty.gov/lms/?p=4735,publish,33.9443,-118.408211,2010-11-01T19:50:56.000Z,,6437859.06904338,1802361.34732564
-118.257341056636307,34.052115967191035,143607871,HSIP Freedom Alternative_Fueling_Stations,,Transportation,Alternative Fuel,Electricity Fueling Stations,National Transportation Atlas Database (NTAD) 2009,Manulife Plaza,515 S Figueroa Street,Downtown,Los Angeles,CA,"24 hours daily, pay lot",,,,Operational,,4736,,90071,http://egis3.lacounty.gov/lms/?p=4736,publish,34.052116,-118.257341,2010-11-01T19:50:56.000Z,,6483718.58067064,1841446.19238414
-118.383835056436482,34.069925966655212,143607872,HSIP Freedom Alternative_Fueling_Stations,,Transportation,Alternative Fuel,Electricity Fueling Stations,National Transportation Atlas Database (NTAD) 2009,Robertson Boulevard Garage,123 S Robertson Boulevard,Beverly Hills Area,Los Angeles,CA,"24 hours daily, pay lot",,,,Operational,,4738,,90048,http://egis3.lacounty.gov/lms/?p=4738,publish,34.069926,-118.383835,2010-11-01T19:50:56.000Z,,6445426.90036438,1848049.75233972
-118.376265055932777,34.059358966388082,143607873,HSIP Freedom Alternative_Fueling_Stations,,Transportation,Alternative Fuel,Electricity Fueling Stations,National Transportation Atlas Database (NTAD) 2009,Le Meridien Hotel,465 S La Cienega Boulevard,Beverly Hills Area,Los Angeles,CA,24 hours daily,,,,Operational,,4739,,90048,http://egis3.lacounty.gov/lms/?p=4739,publish,34.059359,-118.376265,2010-11-01T19:50:56.000Z,,6447705.04967947,1844195.57664914
-118.37797705564617,34.076137967069464,143607874,HSIP Freedom Alternative_Fueling_Stations,,Transportation,Alternative Fuel,Electricity Fueling Stations,National Transportation Atlas Database (NTAD) 2009,Hotel Sofitel,8555 Beverly Boulevard,Beverly Hills Area,Los Angeles,CA,24 hours daily,,,,Operational,,4740,,90048,http://egis3.lacounty.gov/lms/?p=4740,publish,34.076138,-118.377977,2010-11-01T19:50:56.000Z,,6447209.47291473,1850303.67926231
-118.446570056271369,34.061795967095875,143607875,HSIP Freedom Alternative_Fueling_Stations,,Transportation,Alternative Fuel,Electricity Fueling Stations,National Transportation Atlas Database (NTAD) 2009,Westwood Village Parking Structure,1036 Broxton Avenue,,Los Angeles,CA,"24 hours daily, pay lot",,,,Operational,,4741,,90024,http://egis3.lacounty.gov/lms/?p=4741,publish,34.061796,-118.44657,2010-11-01T19:50:56.000Z,,6426414.7412103,1845169.59668273
-118.26125105648093,34.04789196661708,143607876,HSIP Freedom Alternative_Fueling_Stations,,Transportation,Alternative Fuel,Electricity Fueling Stations,National Transportation Atlas Database (NTAD) 2009,801 Tower,801 S Figueroa Street,Downtown,Los Angeles,CA,"24 hours daily, pay lot",,,,Operational,,4742,,90017,http://egis3.lacounty.gov/lms/?p=4742,publish,34.047892,-118.261251,2010-11-01T19:50:56.000Z,,6482530.20115763,1839912.0566729
-118.830107055475793,34.021965966547633,143607877,HSIP Freedom Alternative_Fueling_Stations,,Transportation,Alternative Fuel,Electricity Fueling Stations,National Transportation Atlas Database (NTAD) 2009,Zuma Beach - Inside,30050 Pacific Coast Highway,,Malibu,CA,"24 hours daily, pay lot",,,,Operational,,4743,,90265,http://egis3.lacounty.gov/lms/?p=4743,publish,34.021966,-118.830107,2010-11-01T19:50:56.000Z,,6310132.70048089,1831412.87157156
-118.395962056052824,33.895020967134762,143607878,HSIP Freedom Alternative_Fueling_Stations,,Transportation,Alternative Fuel,Electricity Fueling Stations,National Transportation Atlas Database (NTAD) 2009,Commercial Capital Bank,2600 Sepulveda Boulevard,,Manhattan Beach,CA,24 hours daily,310-546-2421,,,Operational,,4744,,90266,http://egis3.lacounty.gov/lms/?p=4744,publish,33.895021,-118.395962,2010-11-01T19:50:56.000Z,,6441503.55256805,1784412.87633289
-118.443305055967144,33.98557196643921,143607879,HSIP Freedom Alternative_Fueling_Stations,,Transportation,Alternative Fuel,Electricity Fueling Stations,National Transportation Atlas Database (NTAD) 2009,Ralph'S,4311 Lincoln Boulevard,,Marina Del Rey,CA,24 hours daily,,,,Operational,,4745,,90292,http://egis3.lacounty.gov/lms/?p=4745,publish,33.985572,-118.443305,2010-11-01T19:50:56.000Z,,6427281.29065831,1817426.04947965
-118.446251056111592,33.991286966507502,143607880,HSIP Freedom Alternative_Fueling_Stations,,Transportation,Alternative Fuel,Electricity Fueling Stations,National Transportation Atlas Database (NTAD) 2009,Costco,13463 Washington Boulevard,,Marina Del Rey,CA,24 hours daily,,,,Operational,,4746,,90292,http://egis3.lacounty.gov/lms/?p=4746,publish,33.991287,-118.446251,2010-11-01T19:50:56.000Z,,6426397.44236039,1819509.78809431
-118.55348805615445,34.239181966303136,143607881,HSIP Freedom Alternative_Fueling_Stations,,Transportation,Alternative Fuel,Electricity Fueling Stations,National Transportation Atlas Database (NTAD) 2009,Northridge Fashion Center,9301 Tampa Avenue,,Northridge,CA,24 hours daily,,,,Operational,,4747,,91324,http://egis3.lacounty.gov/lms/?p=4747,publish,34.239182,-118.553488,2010-11-01T19:50:56.000Z,,6394387.53689213,1909883.73792347
-118.544720056087016,34.229552966423604,143607882,HSIP Freedom Alternative_Fueling_Stations,,Transportation,Alternative Fuel,Electricity Fueling Stations,National Transportation Atlas Database (NTAD) 2009,Northridge Metrolink Station,8775 Wilbur Avenue,Northridge,Northridge,CA,24 hours daily,,,,Operational,,4748,,91324,http://egis3.lacounty.gov/lms/?p=4748,publish,34.229553,-118.54472,2010-11-01T19:50:56.000Z,,6397018.50735196,1906365.14587931
-118.527794055924872,34.23539896637908,143607883,HSIP Freedom Alternative_Fueling_Stations,,Transportation,Alternative Fuel,Electricity Fueling Stations,National Transportation Atlas Database (NTAD) 2009,Cal State Northridge - Lot G7,18111 Nordoff Street,Northridge,Northridge,CA,24 hours daily,,,,Operational,,4749,,91330,http://egis3.lacounty.gov/lms/?p=4749,publish,34.235399,-118.527794,2010-11-01T19:50:56.000Z,,6402145.83075872,1908465.28702022
-118.527794055924872,34.23539896637908,143607884,HSIP Freedom Alternative_Fueling_Stations,,Transportation,Alternative Fuel,Electricity Fueling Stations,National Transportation Atlas Database (NTAD) 2009,Cal State Northridge - Lot G9,18111 Nordoff Street,Northridge,Northridge,CA,24 hours daily,,,,Operational,,4750,,91330,http://egis3.lacounty.gov/lms/?p=4750,publish,34.235399,-118.527794,2010-11-01T19:50:56.000Z,,6402145.83075872,1908465.28702022
-118.527794055924872,34.23539896637908,143607885,HSIP Freedom Alternative_Fueling_Stations,,Transportation,Alternative Fuel,Electricity Fueling Stations,National Transportation Atlas Database (NTAD) 2009,Cal State Northridge - Lot B4,18111 Nordoff Street,Northridge,Northridge,CA,"24 hours daily, pay lot",,,,Operational,,4751,,91330,http://egis3.lacounty.gov/lms/?p=4751,publish,34.235399,-118.527794,2010-11-01T19:50:56.000Z,,6402145.83075872,1908465.28702022
-118.068676056576223,33.916987966992984,143607886,HSIP Freedom Alternative_Fueling_Stations,,Transportation,Alternative Fuel,Electricity Fueling Stations,National Transportation Atlas Database (NTAD) 2009,La County Hall Of Records,12400 E Imperial Highway,,Norwalk,CA,24 hours daily,,,,Operational,,4752,,90650,http://egis3.lacounty.gov/lms/?p=4752,publish,33.916988,-118.068676,2010-11-01T19:50:56.000Z,,6540833.90836889,1792177.61572464
-118.532856055768406,34.034808966657714,143607887,HSIP Freedom Alternative_Fueling_Stations,,Transportation,Alternative Fuel,Electricity Fueling Stations,National Transportation Atlas Database (NTAD) 2009,Will Rogers Beach,14800 Pacific Coast Highway,Pacific Palisades,Pacific Palisades,CA,"24 hours daily, pay lot in summer",,,,Operational,,4753,,90272,http://egis3.lacounty.gov/lms/?p=4753,publish,34.034809,-118.532856,2010-11-01T19:50:56.000Z,,6400228.89660047,1835475.96055822
-118.132472056811125,34.148721967197453,143607888,HSIP Freedom Alternative_Fueling_Stations,,Transportation,Alternative Fuel,Electricity Fueling Stations,National Transportation Atlas Database (NTAD) 2009,Ralph'S Market,160 N Lake Avenue,,Pasadena,CA,24 hours daily,,,,Operational,,4754,,91101,http://egis3.lacounty.gov/lms/?p=4754,publish,34.148722,-118.132472,2010-11-01T19:50:56.000Z,,6521589.23294756,1876529.55791281
-118.128047056847137,34.139711966414517,143607889,HSIP Freedom Alternative_Fueling_Stations,,Transportation,Alternative Fuel,Electricity Fueling Stations,National Transportation Atlas Database (NTAD) 2009,Caltech Building 124 - Wilson Parking Structure,477 S Wilson Avenue,,Pasadena,CA,"Structure closed at facility discretion, pay lot",,,,Operational,,4755,,91106,http://egis3.lacounty.gov/lms/?p=4755,publish,34.139712,-118.128047,2010-11-01T19:50:56.000Z,,6522923.89563255,1873248.92142947
-118.136943056676984,34.147491966415544,143607890,HSIP Freedom Alternative_Fueling_Stations,,Transportation,Alternative Fuel,Electricity Fueling Stations,National Transportation Atlas Database (NTAD) 2009,City Of Pasadena - El Molino Lot,100 N El Molino Avenue,,Pasadena,CA,"24 hours daily, pay lot",,,,Operational,,4756,,91105,http://egis3.lacounty.gov/lms/?p=4756,publish,34.147492,-118.136943,2010-11-01T19:50:56.000Z,,6520235.86590363,1876083.75138973
-118.122959057005417,34.139333967175062,143607891,HSIP Freedom Alternative_Fueling_Stations,,Transportation,Alternative Fuel,Electricity Fueling Stations,National Transportation Atlas Database (NTAD) 2009,Caltech Building 66 - Holliston Parking Structure,370 S Holliston Avenue,,Pasadena,CA,"Structure closed at facility discretion, pay lot",,,,Operational,,4757,,91105,http://egis3.lacounty.gov/lms/?p=4757,publish,34.139334,-118.122959,2010-11-01T19:50:56.000Z,,6524463.33185814,1873109.43844073
-118.152333057146549,34.144990967023404,143607892,HSIP Freedom Alternative_Fueling_Stations,,Transportation,Alternative Fuel,Electricity Fueling Stations,National Transportation Atlas Database (NTAD) 2009,City Of Pasadena - De Lacey Garage,45 De Lacey Avenue,,Pasadena,CA,"24 hours daily, pay lot",,,,Operational,,4758,,91105,http://egis3.lacounty.gov/lms/?p=4758,publish,34.144991,-118.152333,2010-11-01T19:50:56.000Z,,6515577.98053439,1875180.29322289
-118.141391056248139,34.14328696653893,143607893,HSIP Freedom Alternative_Fueling_Stations,,Transportation,Alternative Fuel,Electricity Fueling Stations,National Transportation Atlas Database (NTAD) 2009,Pasadena Hilton - Valet,150 S Los Robles,,Pasadena,CA,"24 hours daily, pay lot",,,,Operational,,4759,,91101,http://egis3.lacounty.gov/lms/?p=4759,publish,34.143287,-118.141391,2010-11-01T19:50:56.000Z,,6518887.89550246,1874555.3397484
-118.149791056691882,34.144595966653164,143607894,HSIP Freedom Alternative_Fueling_Stations,,Transportation,Alternative Fuel,Electricity Fueling Stations,National Transportation Atlas Database (NTAD) 2009,City Of Pasadena - Schoolhouse Garage,33 E Green Street,Schoolhouse,Pasadena,CA,"24 hours daily, pay lot",,,,Operational,,4760,,91105,http://egis3.lacounty.gov/lms/?p=4760,publish,34.144596,-118.149791,2010-11-01T19:50:56.000Z,,6516346.91469206,1875035.38964131
-118.44234905600301,33.944544966885047,143607895,HSIP Freedom Alternative_Fueling_Stations,,Transportation,Alternative Fuel,Electricity Fueling Stations,National Transportation Atlas Database (NTAD) 2009,Dockweiler Beach,8255 Vista Del Mar,,Playa Del Rey,CA,24 hours daily,,,,Operational,,4761,,90293,http://egis3.lacounty.gov/lms/?p=4761,publish,33.944545,-118.442349,2010-11-01T19:50:56.000Z,,6427505.39782164,1802494.3142513
-117.7240970578939,34.060712967659299,143607896,HSIP Freedom Alternative_Fueling_Stations,,Transportation,Alternative Fuel,Electricity Fueling Stations,National Transportation Atlas Database (NTAD) 2009,Southern California Edison - Pomona Service Center,265 Ne End Avenue,,Pomona,CA,24 hours daily,800-4EV-INFO,,,Operational,,4762,,91767,http://egis3.lacounty.gov/lms/?p=4762,publish,34.060713,-117.724097,2010-11-01T19:50:56.000Z,,6645236.13263489,1844589.71824931
-118.082003057027947,34.053647966736122,143607897,HSIP Freedom Alternative_Fueling_Stations,,Transportation,Alternative Fuel,Electricity Fueling Stations,National Transportation Atlas Database (NTAD) 2009,Southern California Edison - Public Facility,2244 Walnut Grove Avenue,,Rosemead,CA,24 hours daily,800-4EV-INFO,,,Operational,,4763,,91770,http://egis3.lacounty.gov/lms/?p=4763,publish,34.053648,-118.082003,2010-11-01T19:50:56.000Z,,6536831.04367122,1841914.06644839
-117.811865057640446,34.079020966931608,143607898,HSIP Freedom Alternative_Fueling_Stations,,Transportation,Alternative Fuel,Electricity Fueling Stations,National Transportation Atlas Database (NTAD) 2009,Via Verde/Raging Waters Park & Ride,105 Via Verde,,San Dimas,CA,24 hours daily,,,,Operational,,4764,,91773,http://egis3.lacounty.gov/lms/?p=4764,publish,34.079021,-117.811865,2010-11-01T19:50:56.000Z,,6618640.43188938,1851190.97571605
-117.807051057550495,34.105086967318499,143607899,HSIP Freedom Alternative_Fueling_Stations,,Transportation,Alternative Fuel,Electricity Fueling Stations,National Transportation Atlas Database (NTAD) 2009,San Dimas Park & Ride,205 S San Dimas Avenue,,San Dimas,CA,24 hours daily,,,,Operational,,4765,,91773,http://egis3.lacounty.gov/lms/?p=4765,publish,34.105087,-117.807051,2010-11-01T19:50:56.000Z,,6620079.97231738,1860679.63029514
-117.802436056996441,34.101782967319231,143607900,HSIP Freedom Alternative_Fueling_Stations,,Transportation,Alternative Fuel,Electricity Fueling Stations,National Transportation Atlas Database (NTAD) 2009,San Dimas Maintenance Yard,301 S Walnut Avenue,,San Dimas,CA,24 hours daily,,,,Operational,,4766,,91773,http://egis3.lacounty.gov/lms/?p=4766,publish,34.101783,-117.802436,2010-11-01T19:50:56.000Z,,6621479.38979414,1859479.95913807
-118.099621056261228,34.076647966670201,143607901,HSIP Freedom Alternative_Fueling_Stations,,Transportation,Alternative Fuel,Electricity Fueling Stations,National Transportation Atlas Database (NTAD) 2009,San Gabriel Park & Ride,1735 S Del Mar Avenue,,San Gabriel,CA,24 hours daily,,,,Operational,,4767,,91776,http://egis3.lacounty.gov/lms/?p=4767,publish,34.076648,-118.099621,2010-11-01T19:50:56.000Z,,6531502.72460347,1850289.02574831
-118.107907056434357,34.096926967362158,143607902,HSIP Freedom Alternative_Fueling_Stations,,Transportation,Alternative Fuel,Electricity Fueling Stations,National Transportation Atlas Database (NTAD) 2009,San Gabriel Park & Ride,532 W Mission Drive,,San Gabriel,CA,24 hours daily,,,,Operational,,4768,,91776,http://egis3.lacounty.gov/lms/?p=4768,publish,34.096927,-118.107907,2010-11-01T19:50:56.000Z,,6529001.45007847,1857671.52345048
-118.453312056226181,34.424031965957283,143607903,HSIP Freedom Alternative_Fueling_Stations,,Transportation,Alternative Fuel,Electricity Fueling Stations,National Transportation Atlas Database (NTAD) 2009,Chevron Station,18802 Via Princessa,,Santa Clarita,CA,24 hours daily,,,,Operational,,4770,,91351,http://egis3.lacounty.gov/lms/?p=4770,publish,34.424032,-118.453312,2010-11-01T19:50:56.000Z,,6424967.2559163,1977001.85860823
-118.083115056355851,33.946141967239072,143607904,HSIP Freedom Alternative_Fueling_Stations,,Transportation,Alternative Fuel,Electricity Fueling Stations,National Transportation Atlas Database (NTAD) 2009,Sante Fe Springs Town Center Hall,11740 E Telegraph Road,,Santa Fe Springs,CA,24 hours daily,,,,Operational,,4771,,90670,http://egis3.lacounty.gov/lms/?p=4771,publish,33.946142,-118.083115,2010-11-01T19:50:56.000Z,,6536461.86297914,1802790.71228056
-118.490111056201428,34.009993966522025,143607905,HSIP Freedom Alternative_Fueling_Stations,,Transportation,Alternative Fuel,Electricity Fueling Stations,National Transportation Atlas Database (NTAD) 2009,Santa Monica Civic Center,1801 Main Street,,Santa Monica,CA,"Restricted to lot hours, pay lot",310-393-9975,,,Operational,,4772,,90401,http://egis3.lacounty.gov/lms/?p=4772,publish,34.009994,-118.490111,2010-11-01T19:50:56.000Z,,6413135.37439638,1826379.49351498
-118.492935055781032,34.010062966475239,143607906,HSIP Freedom Alternative_Fueling_Stations,,Transportation,Alternative Fuel,Electricity Fueling Stations,National Transportation Atlas Database (NTAD) 2009,Loews Santa Monica Beach Hotel - Valet,1700 Ocean Avenue,,Santa Monica,CA,"24 hours daily, pay lot",,,,Operational,,4773,,90401,http://egis3.lacounty.gov/lms/?p=4773,publish,34.010063,-118.492935,2010-11-01T19:50:56.000Z,,6412279.65202647,1826408.78873198
-118.495714055770321,34.02025996714908,143607907,HSIP Freedom Alternative_Fueling_Stations,,Transportation,Alternative Fuel,Electricity Fueling Stations,National Transportation Atlas Database (NTAD) 2009,Jsm,1244 Sixth Street,,Santa Monica,CA,24 hours daily,,,,Operational,,4774,,90405,http://egis3.lacounty.gov/lms/?p=4774,publish,34.02026,-118.495714,2010-11-01T19:50:56.000Z,,6411455.7455378,1830123.77966157
-118.493556055271526,34.015125966388375,143607908,HSIP Freedom Alternative_Fueling_Stations,,Transportation,Alternative Fuel,Electricity Fueling Stations,National Transportation Atlas Database (NTAD) 2009,Santa Monica Place,395 Broadway,,Santa Monica,CA,24 hours daily,,,,Operational,,4775,,90401,http://egis3.lacounty.gov/lms/?p=4775,publish,34.015126,-118.493556,2010-11-01T19:50:56.000Z,,6412100.49818531,1828252.21811597
-118.494732055343704,34.011585966618028,143607909,HSIP Freedom Alternative_Fueling_Stations,,Transportation,Alternative Fuel,Electricity Fueling Stations,National Transportation Atlas Database (NTAD) 2009,City Of Santa Monica - Pier,1600 Ocean Boulevard,,Santa Monica,CA,"24 hours daily, pay lot",,,,Operational,,4776,,90405,http://egis3.lacounty.gov/lms/?p=4776,publish,34.011586,-118.494732,2010-11-01T19:50:56.000Z,,6411737.77909447,1826965.70822181
-118.454644055828297,34.016296967123928,143607910,HSIP Freedom Alternative_Fueling_Stations,,Transportation,Alternative Fuel,Electricity Fueling Stations,National Transportation Atlas Database (NTAD) 2009,City Of Santa Monica - Airport,2772 Donald Douglas Loop,,Santa Monica,CA,24 hours daily,,,,Operational,,4777,,90405,http://egis3.lacounty.gov/lms/?p=4777,publish,34.016297,-118.454644,2010-11-01T19:50:56.000Z,,6423894.44080472,1828622.74624631
-118.473368055629749,34.028240967120553,143607911,HSIP Freedom Alternative_Fueling_Stations,,Transportation,Alternative Fuel,Electricity Fueling Stations,National Transportation Atlas Database (NTAD) 2009,Ralph'S,1644 Cloverfield Boulevard,,Santa Monica,CA,24 hours daily,,,,Operational,,4778,,90404,http://egis3.lacounty.gov/lms/?p=4778,publish,34.028241,-118.473368,2010-11-01T19:50:56.000Z,,6418240.80709888,1832995.55147706
-118.43820505612247,34.157388966896001,143607912,HSIP Freedom Alternative_Fueling_Stations,,Transportation,Alternative Fuel,Electricity Fueling Stations,National Transportation Atlas Database (NTAD) 2009,Sherman Oaks Fashion Square,14006 Riverside Drive,,Sherman Oaks,CA,24 hours daily,,,,Operational,,4779,,91423,http://egis3.lacounty.gov/lms/?p=4779,publish,34.157389,-118.438205,2010-11-01T19:50:56.000Z,,6429099.94450131,1879946.19281182
-118.165644056603654,33.804517967750897,143607913,HSIP Freedom Alternative_Fueling_Stations,,Transportation,Alternative Fuel,Electricity Fueling Stations,National Transportation Atlas Database (NTAD) 2009,Costco,2200 Willow,,Signal Hill,CA,24 hours daily,,,,Operational,,4780,,90806,http://egis3.lacounty.gov/lms/?p=4780,publish,33.804518,-118.165644,2010-11-01T19:50:56.000Z,,6511346.21176697,1751281.33104756
-118.174466056107889,33.950455967155364,143607914,HSIP Freedom Alternative_Fueling_Stations,,Transportation,Alternative Fuel,Electricity Fueling Stations,National Transportation Atlas Database (NTAD) 2009,Shultz Steel Company,5321 Firestone Boulevard,,South Gate,CA,8am-5pm M-F,,,,Operational,,4781,,90280,http://egis3.lacounty.gov/lms/?p=4781,publish,33.950456,-118.174466,2010-11-01T19:50:56.000Z,,6508758.1926648,1804396.16707489
-118.150427056906807,34.118755967214248,143607915,HSIP Freedom Alternative_Fueling_Stations,,Transportation,Alternative Fuel,Electricity Fueling Stations,National Transportation Atlas Database (NTAD) 2009,Bristol Farms,606 Fair Oaks Avenue,,South Pasadena,CA,24 hours daily,,,,Operational,,4782,,91030,http://egis3.lacounty.gov/lms/?p=4782,publish,34.118756,-118.150427,2010-11-01T19:50:56.000Z,,6516140.40296596,1865632.03607273
-118.40568105627338,34.150265966527655,143607916,HSIP Freedom Alternative_Fueling_Stations,,Transportation,Alternative Fuel,Electricity Fueling Stations,National Transportation Atlas Database (NTAD) 2009,Studio City Library,12511 Moorpark Street,,Studio City,CA,24 hours daily,,,,Operational,,4783,,91604,http://egis3.lacounty.gov/lms/?p=4783,publish,34.150266,-118.405681,2010-11-01T19:50:56.000Z,,6438928.92943648,1877312.72104464
-118.428362056632082,34.305863966293735,143607917,HSIP Freedom Alternative_Fueling_Stations,,Transportation,Alternative Fuel,Electricity Fueling Stations,National Transportation Atlas Database (NTAD) 2009,Sylmar Metrolink Station,2100 Frank Modugno Drive,,Sylmar,CA,24 hours daily,,,,Operational,,4784,,91342,http://egis3.lacounty.gov/lms/?p=4784,publish,34.305864,-118.428362,2010-11-01T19:50:56.000Z,,6432307.99615605,1933965.61889347
-118.553567055980466,34.17252896636645,143607918,HSIP Freedom Alternative_Fueling_Stations,,Transportation,Alternative Fuel,Electricity Fueling Stations,National Transportation Atlas Database (NTAD) 2009,Hawthorne Savings,19300 Ventura Boulevard,,Tarzana,CA,24 hours daily,,,,Operational,,4785,,91356,http://egis3.lacounty.gov/lms/?p=4785,publish,34.172529,-118.553567,2010-11-01T19:50:56.000Z,,6394230.07854563,1885628.00526705
-118.352889056241381,33.833511967021124,143607919,HSIP Freedom Alternative_Fueling_Stations,,Transportation,Alternative Fuel,Electricity Fueling Stations,National Transportation Atlas Database (NTAD) 2009,Former Hawthorne Savings Location,21370 Hawthorne Boulevard,,Torrance,CA,24 hours daily,,,,Operational,,4786,,90503,http://egis3.lacounty.gov/lms/?p=4786,publish,33.833512,-118.352889,2010-11-01T19:50:56.000Z,,6454496.72933756,1761979.67808914
-118.333030056050745,33.803293967173865,143607920,HSIP Freedom Alternative_Fueling_Stations,,Transportation,Alternative Fuel,Electricity Fueling Stations,National Transportation Atlas Database (NTAD) 2009,Costco,2751 Skypark Drive,,Torrance,CA,24 hours daily,,,,Operational,,4787,,90505,http://egis3.lacounty.gov/lms/?p=4787,publish,33.803294,-118.33303,2010-11-01T19:50:56.000Z,,6460491.51852906,1750962.0278804
-118.357195055788779,34.139639967042633,143607921,HSIP Freedom Alternative_Fueling_Stations,,Transportation,Alternative Fuel,Electricity Fueling Stations,National Transportation Atlas Database (NTAD) 2009,Universal City Hilton,333 Universal Terrace Parkway,,Universal City,CA,"24 hours daily, pay lot",,,,Operational,,4788,,91608,http://egis3.lacounty.gov/lms/?p=4788,publish,34.13964,-118.357195,2010-11-01T19:50:56.000Z,,6453584.87354971,1873390.08223639
-118.361296055893007,34.137337966332169,143607922,HSIP Freedom Alternative_Fueling_Stations,,Transportation,Alternative Fuel,Electricity Fueling Stations,National Transportation Atlas Database (NTAD) 2009,Universal City Walk,100 Universal City Plaza,,Universal City,CA,24 hours daily,,,,Operational,,4789,,91608,http://egis3.lacounty.gov/lms/?p=4789,publish,34.137338,-118.361296,2010-11-01T19:50:56.000Z,,6452340.92525022,1872556.78239381
-118.561785055680176,34.410756965818123,143607923,HSIP Freedom Alternative_Fueling_Stations,,Transportation,Alternative Fuel,Electricity Fueling Stations,National Transportation Atlas Database (NTAD) 2009,Valencia Town Center,24201 W Valencia Boulevard,,Valencia,CA,24 hours daily,,,,Operational,,4790,,91355,http://egis3.lacounty.gov/lms/?p=4790,publish,34.410757,-118.561785,2010-11-01T19:50:56.000Z,,6392228.89554013,1972336.06249364
-118.586731056309858,34.427932965948848,143607924,HSIP Freedom Alternative_Fueling_Stations,,Transportation,Alternative Fuel,Electricity Fueling Stations,National Transportation Atlas Database (NTAD) 2009,Valencia Hilton Garden,27710 The Old Road,,Valencia,CA,"24 hours daily, pay lot",,,,Operational,,4791,,91355,http://egis3.lacounty.gov/lms/?p=4791,publish,34.427933,-118.586731,2010-11-01T19:50:56.000Z,,6384741.43708989,1978629.63881722
-118.448871055786043,34.208752966514105,143607925,HSIP Freedom Alternative_Fueling_Stations,,Transportation,Alternative Fuel,Electricity Fueling Stations,National Transportation Atlas Database (NTAD) 2009,Van Nuys Amtrak/Metrolink Station,7724 Van Nuys Boulevard,,Van Nuys,CA,24 hours daily,,,,Operational,,4792,,91405,http://egis3.lacounty.gov/lms/?p=4792,publish,34.208753,-118.448871,2010-11-01T19:50:56.000Z,,6425956.64698213,1898652.53466414
-118.46620605550271,34.181111966475036,143607926,HSIP Freedom Alternative_Fueling_Stations,,Transportation,Alternative Fuel,Electricity Fueling Stations,National Transportation Atlas Database (NTAD) 2009,Costco,6100 Sepulveda Boulevard,,Van Nuys,CA,24 hours daily,,,,Operational,,4793,,91411,http://egis3.lacounty.gov/lms/?p=4793,publish,34.181112,-118.466206,2010-11-01T19:50:56.000Z,,6420668.88787264,1888617.43990497
-117.938523057200698,34.072165967241006,143607927,HSIP Freedom Alternative_Fueling_Stations,,Transportation,Alternative Fuel,Electricity Fueling Stations,National Transportation Atlas Database (NTAD) 2009,West Covina City Hall Parking,1444 W Garvey Avenue South,,West Covina,CA,24 hours daily,,,,Operational,,4794,,91790,http://egis3.lacounty.gov/lms/?p=4794,publish,34.072166,-117.938523,2010-11-01T19:50:56.000Z,,6580288.02270196,1848648.68716548
-117.940033056619257,34.065533967134428,143607928,HSIP Freedom Alternative_Fueling_Stations,,Transportation,Alternative Fuel,Electricity Fueling Stations,National Transportation Atlas Database (NTAD) 2009,West Covina Plaza,1200 W Covina Parkway,,West Covina,CA,24 hours daily,,,,Operational,,4795,,91790,http://egis3.lacounty.gov/lms/?p=4795,publish,34.065534,-117.940033,2010-11-01T19:50:56.000Z,,6579832.17453231,1846234.89934215
-118.370511056334365,34.090650967075284,143607929,HSIP Freedom Alternative_Fueling_Stations,,Transportation,Alternative Fuel,Electricity Fueling Stations,National Transportation Atlas Database (NTAD) 2009,West Hollywood City Hall,8300 Santa Monica Boulevard,,West Hollywood,CA,24 hours daily,,,,Operational,,4796,,90069,http://egis3.lacounty.gov/lms/?p=4796,publish,34.090651,-118.370511,2010-11-01T19:50:56.000Z,,6449489.82104431,1855576.78157698
-118.384536056326539,34.085511966967474,143607930,HSIP Freedom Alternative_Fueling_Stations,,Transportation,Alternative Fuel,Electricity Fueling Stations,National Transportation Atlas Database (NTAD) 2009,West Hollywood Park,647 N San Vicente Boulevard,,West Hollywood,CA,24 hours daily,,,,Operational,,4797,,90069,http://egis3.lacounty.gov/lms/?p=4797,publish,34.085512,-118.384536,2010-11-01T19:50:56.000Z,,6445236.3039608,1853722.56448489
-118.794630055240944,34.154116966579203,143607931,HSIP Freedom Alternative_Fueling_Stations,,Transportation,Alternative Fuel,Electricity Fueling Stations,National Transportation Atlas Database (NTAD) 2009,Costco,5700 Lindero Canyon Road,,Westlake Village,CA,24 hours daily,818-597-3900,,,Operational,,4798,,91362,http://egis3.lacounty.gov/lms/?p=4798,publish,34.154117,-118.79463,2010-11-01T19:50:56.000Z,,6321262.83668514,1879416.74341139
-118.172915039637147,34.694026500122348,143662987,HSIP Freedom Alternative_Fueling_Stations,,Transportation,Alternative Fuel,Electricity Fueling Stations,National Transportation Atlas Database (NTAD) 2009,Valley Central Shopping Center,44707 Valley Central Way,,Lancaster,CA,24 hours daily,,,,Operational,,4703,,93536,http://egis3.lacounty.gov/lms/?p=4703,publish,34.69402653,-118.17291498,2011-04-24T23:01:15.000Z,,6509694.07530747,2074996.10618889
-118.281365055500757,33.739907967689177,143663303,HSIP Freedom Alternative_Fueling_Stations,,Transportation,Alternative Fuel,Electricity Fueling Stations,National Transportation Atlas Database (NTAD) 2009,La Harbor Department Headquarters,425 S Palos Verdes Street,,San Pedro,CA,24 hours daily,,,,Operational,,4769,,90731,http://egis3.lacounty.gov/lms/?p=4769,publish,33.739908,-118.281365,2011-05-13T09:24:12.000Z,,6476123.39802639,1727846.1626949
-118.242480810887713,34.072775234944139,143663591,HSIP Freedom Alternative_Fueling_Stations,,Transportation,Alternative Fuel,Electricity Fueling Stations,National Transportation Atlas Database (NTAD) 2009,Dodger Stadium,1000 Elysian Park Avenue,Downtown,Los Angeles,CA,24 hours daily,,,,Operational,,4737,This is an electricity fueling station.,90012,http://egis3.lacounty.gov/lms/?p=4737,publish,34.07277527,-118.24248075,2011-11-16T14:52:40.000Z,,6488238.05883639,1848953.28498147
-118.492076452509778,34.164334897903792,143663775,Metropolitan Transportation Authority (MTA),,Transportation,Alternative Fuel,Electricity Fueling Stations,Metropolitan Transit Authority (MTA),Encino Park And Ride,5174 Hayvenhurst Ave,,Encino,CA,,,,http://www.ladottransit.com/ridersguide.html,,,62884,,,http://egis3.lacounty.gov/lms/?p=62884,publish,34.16433493,-118.4920764,2013-01-29T12:20:22.000Z,,6412814.70082514,1882549.32999398
-118.475881255921806,34.086938846318333,143667716,211,,Transportation,Alternative Fuel,Electricity Fueling Stations,www.getty.edu,The Getty Center,1200 N Getty Center Dr,,Los Angeles,CA,,"Service/Intake and Administration (310) 440-7300,  TDD (310) 440-7305",,www.getty.edu,,,60035,The museum provides museum services for people of all ages in Los Angeles County.,90049,http://egis3.lacounty.gov/lms/?p=60035,publish,34.08693888,-118.4758812,2014-05-23T13:45:08.000Z,,6417580.44851147,1854360.2029734
-118.589894923878731,34.170434173831445,143672967,Current Services Locator,,Transportation,Alternative Fuel,Electricity Fueling Stations,LA County,Kaiser Permanente - Woodland Hills Medical Center,5601 De Soto Ave.,,Woodland Hills,CA,"818-719-2000
24 hours, 7 days a week

Adults:
 Monday – Friday, 5pm to 9pm
Weekends and holidays, 9am to 9pm
Medical Office Tower, Entrance A, 1st Floor

Pediatrics:
 Weekends and holidays, 9am to 7pm
 Northside Building, 2nd Floor, Suite 260

","818-719-2000

Advice Nurse
888-515-3500
7am to 7pm, every day

Advice after hours
888-576-6225

",,https://thrive.kaiserpermanente.org/care-near-you/southern-california/woodland-hills/,,,730,"The Medical Centers Provides 24 Hour Emergency Services, Bereavement Support Groups, Health Education And Safe Havens For Abandoned Newborns.",91365,http://egis3.lacounty.gov/lms/?p=730,publish,34.17043421,-118.58989487,2016-01-25T10:06:15.000Z,,6383237.45059656,1884928.18514439
-118.593801455663154,34.487788066215536,143673809,,,Transportation,Alternative Fuel,Electricity Fueling Stations,Los Angeles County - Sheriff ,Sheriff - Pitchess Detention Center (EVSE),29320 Wayside Rd,,Castaic,CA,,,,,County Only,4 charging stations,81708,"Opened at 8/1/2014

Employee use only",91384,http://egis3.lacounty.gov/lms/?p=81708,publish,34.4877881,-118.5938014,2017-01-30T13:29:11.000Z,,6382738.05920689,2000424.33407289
-118.075815857282407,34.103047266957141,143673810,,,Transportation,Alternative Fuel,Electricity Fueling Stations,Los Angeles County - Sheriff ,Sheriff - Temple City Station (EVSE),8838 Las Tunas Dr,,Temple City,CA,24 hours daily,323-267-2023,,,County Only,2 charging stations,81710,"Opened at 8/1/2014

24 hours daily; keypad activated, instructions on EVSE",91780,http://egis3.lacounty.gov/lms/?p=81710,publish,34.1030473,-118.0758158,2017-01-30T13:31:26.000Z,,6538718.74822913,1859889.93600839
-118.230698056742654,34.058725666959973,143673811,,,Transportation,Alternative Fuel,Electricity Fueling Stations,Los Angeles County - Sheriff ,Sheriff - Twin Towers Detention Facility (EVSE),450 E Bauchet,,Los Angeles,CA,,,,,County Only,2 charging stations,81712,"Opened at 8/1/2014

Permitted employee parking only",90012,http://egis3.lacounty.gov/lms/?p=81712,publish,34.0587257,-118.230698,2017-01-30T13:33:21.000Z,,6491794.57797006,1843831.99207447
-118.383370956582468,34.084399466515684,143673812,,,Transportation,Alternative Fuel,Electricity Fueling Stations,Los Angeles County - Sheriff ,Sheriff - West Hollywood Station (EVSE),780 San Vicente Blvd,,West Hollywood ,CA,24 hours daily,323-267-2023,,,County Only,2 charging stations,81716,"Opened at 8/1/2014

24 hours daily; keypad activated, instructions on EVSE",90069,http://egis3.lacounty.gov/lms/?p=81716,publish,34.0843995,-118.3833709,2017-01-30T13:37:16.000Z,,6445587.53980689,1853316.35991673
-117.954105456826994,34.088898066700082,143673813,,,Transportation,Alternative Fuel,Electricity Fueling Stations,Los Angeles County - Department of Public Works,Department of Public Works - Baldwin Park Construction Permit Office (EVSE),14747 E Ramona Blvd,,Baldwin Park,CA,,,,,Public ,,81718,,91706,http://egis3.lacounty.gov/lms/?p=81718,publish,34.0888981,-117.9541054,2017-01-30T13:39:00.000Z,,6575566.26869406,1854735.2947429
-118.167863055879323,33.923722966873562,143673814,,,Transportation,Alternative Fuel,Electricity Fueling Stations,Los Angeles County - Department of Public Works ,Department of Public Works - Hollydale Construction Permit Office (EVSE),11282 S Garfield Ave,,Downey,CA,,,,,Public ,,81720,,90242,http://egis3.lacounty.gov/lms/?p=81720,publish,33.923723,-118.167863,2017-01-30T13:41:01.000Z,,6510744.5056213,1794664.03857331
-118.002451657132269,34.113165967002317,143673815,,,Transportation,Alternative Fuel,Electricity Fueling Stations,Los Angeles County - Department of Public Works ,Department of Public Works - Longden Flood Maintenance Yard (EVSE),160 E Longden Ave,,Irwindale,CA,,,,,Public ,,81722,,91706,http://egis3.lacounty.gov/lms/?p=81722,publish,34.113166,-118.0024516,2017-01-30T13:43:00.000Z,,6560928.24875756,1863563.67406772
-118.248932556268585,34.056606667214908,143673816,,,Transportation,Alternative Fuel,Electricity Fueling Stations,Los Angeles County - Music Center ,Music Center Parking (EVSE),135 N Grand Ave,,Los Angeles,CA,Garage business hours,"213-972-7211
323-267-2023",,,Public ,3 charging stations,81726,"Music Center Parking Lot 14, level 2

Opened at 1/31/2002

Garage business hours; pay lot; keypad activated, instructions on EVSE",90012,http://egis3.lacounty.gov/lms/?p=81726,publish,34.0566067,-118.2489325,2017-01-30T13:46:54.000Z,,6486269.66054222,1843074.02607073
-118.248932556268585,34.056606667214908,143673817,,,Transportation,Alternative Fuel,Electricity Fueling Stations,Los Angeles County - Music Center ,Music Center Parking (EVSE),135 N Grand Ave,,Los Angeles,CA,Garage business hours,213-972-7211  323-267-2023,,,Public ,3 charging stations,81728,"Music Center Parking Lot 14, level 3

Opened at 8/1/2014

Garage business hours; pay lot; keypad activated, instructions on EVSE",90012,http://egis3.lacounty.gov/lms/?p=81728,publish,34.0566067,-118.2489325,2017-01-30T13:49:02.000Z,,6486269.66054222,1843074.02607073
-118.288681855944859,34.017076866768782,143673818,,,Transportation,Alternative Fuel,Electricity Fueling Stations,Los Angeles County - Natural History Museum,Natural History Museum (EVSE),900 Exposition Blvd,,Los Angeles,CA,Museum business hours,323-267-2023,,,County Only,4 charging stations,81730,"Lower level of parking structure

Opened at 1/2/2014",90007,http://egis3.lacounty.gov/lms/?p=81730,publish,34.0170769,-118.2886818,2017-01-30T13:50:46.000Z,,6474188.47145006,1828720.60792723
-118.150046457085566,34.085041267175768,143673819,,,Transportation,Alternative Fuel,Electricity Fueling Stations,Los Angeles County - Public Works,Public Works Annex (EVSE),900 S Fremont Ave,,Alhambra ,CA,6am-6pm M-F,323-267-2023,,,County Only,3 charging stations,81732,"Northside of Annex by driveway

Opened at 8/1/2014

6am-6pm M-F; keypad activated, instructions on EVSE",91803,http://egis3.lacounty.gov/lms/?p=81732,publish,34.0850413,-118.1500464,2017-01-30T13:52:48.000Z,,6516237.28499006,1853362.46710798
-118.150046457085566,34.085041267175768,143673820,,,Transportation,Alternative Fuel,Electricity Fueling Stations,Los Angeles County - Public Works ,Public Works Headquarters (EVSE),900 S Fremont Ave,,Alhambra ,CA,6am-6pm M-F,323-267-2023,,,County Only,8 charging stations,81734,"Located in front and near the motorpool area

Opened at 8/1/2014

6am-6pm M-F; keypad activated, instructions on EVSE",91803,http://egis3.lacounty.gov/lms/?p=81734,publish,34.0850413,-118.1500464,2017-01-30T13:55:01.000Z,,6516237.28499006,1853362.46710798
-118.150046457085566,34.085041267175768,143673821,,,Transportation,Alternative Fuel,Electricity Fueling Stations,Los Angeles County - Public Works ,Public Works Headquarters (EVSE),900 S Fremont Ave,,Alhambra ,CA,6am-6pm M-F,323-267-2023,,,County Only,5 charging stations,81737,"Located in front and near the motorpool area

6am-6pm M-F; keypad activated, instructions on EVSE",91803,http://egis3.lacounty.gov/lms/?p=81737,publish,34.0850413,-118.1500464,2017-01-30T13:56:48.000Z,,6516237.28499006,1853362.46710798
-118.158588556008354,33.929331667114603,143673822,,,Transportation,Alternative Fuel,Electricity Fueling Stations,Los Angeles County - Rancho Los Amigos Hospital,Rancho Los Amigos Hospital (EVSE),7601 E Imperial Hwy,,Downey ,CA,24 hours daily,323-267-2023,,,County Only,5 charging stations,81739,"Parking Structure rear bottom floor

Opened at 8/1/2014

24 hours daily; keypad activated, instructions on EVSE",90242,http://egis3.lacounty.gov/lms/?p=81739,publish,33.9293317,-118.1585885,2017-01-30T13:58:34.000Z,,6513561.39631297,1796700.59946081
-118.24888495619517,34.055509366775198,143673823,,,Transportation,Alternative Fuel,Electricity Fueling Stations,Los Angeles County - Walt Disney Concert Hall,Walt Disney Concert Hall (EVSE),115 S Grand Ave,,Los Angeles,CA,Garage business hours,323-881-3919 ,,,Public ,6 charging stations,81741,"Disney Concert Hall Parking Lot 16

Garage business hours; pay lot; keypad activated, instructions on EVSE",90012,http://egis3.lacounty.gov/lms/?p=81741,publish,34.0555094,-118.2488849,2017-01-30T14:00:47.000Z,,6486283.08964922,1842674.66269623
-118.245039056859213,34.055059967142192,143673824,,,Transportation,Alternative Fuel,Electricity Fueling Stations,Los Angeles County - Los Angeles Law Library ,Los Angeles Law Library (Lot 10) (EVSE),145 N Broadway,,Los Angeles,CA,Garage business hours,323-881-3919 ,,,Public ,4 charging stations,81724,"Parking Lot 10

Opened at 8/1/2014

Garage business hours; pay lot; keypad activated, instructions on EVSE",90012,http://egis3.lacounty.gov/lms/?p=81724,publish,34.05506,-118.245039,2017-01-30T14:02:12.000Z,,6487447.61159839,1842508.25587681
-117.834321257335404,34.02892826705795,143673825,,,Transportation,Alternative Fuel,Electricity Fueling Stations,Los Angeles County - Sheriff ,Sheriff - Walnut Station (EVSE),21695 Valley Blvd,,Walnut,CA,24 hours daily,323-267-2023,,,County Only,2 charging stations,81714,"Opened at 8/1/2014

24 hours daily; keypad activated, instructions on EVSE",91789,http://egis3.lacounty.gov/lms/?p=81714,publish,34.0289283,-117.8343212,2017-01-30T14:02:54.000Z,,6611870.41229297,1832949.32551965
-118.231887856657366,34.059742966558638,143673826,,,Transportation,Alternative Fuel,Electricity Fueling Stations,Los Angeles County - Sheriff ,Sheriff - Men's Central Jail (EVSE),441 E Bauchet,,Los Angeles,CA,,,,,County Only,2 charging stations,81705,"Opened at 8/1/2014

Permitted employee parking only",90012,http://egis3.lacounty.gov/lms/?p=81705,publish,34.059743,-118.2318878,2017-01-30T14:03:25.000Z,,6491435.0560513,1844203.03529565
-118.714632755335728,34.137439966292753,143673827,,,Transportation,Alternative Fuel,Electricity Fueling Stations,Los Angeles County - Sheriff ,Sheriff - Lost Hills (EVSE),27050 Agoura Rd,,Agoura,,24 hours daily,323-267-2023,,,County Only,2 charging stations,81703,"Opened at 8/1/2014

24 hours daily; keypad activated, instructions on EVSE",91301,http://egis3.lacounty.gov/lms/?p=81703,publish,34.13744,-118.7146327,2017-01-30T14:03:31.000Z,,6345421.65450914,1873166.13255306
-118.230395156142748,34.221140966927237,143673828,,,Transportation,Alternative Fuel,Electricity Fueling Stations,Los Angeles County - Sheriff,Sheriff - La Crescenta Station (EVSE),4554 Briggs Ave,,La Crescenta,,24 hours daily,323-267-2023,,,Public ,2 charging stations,81701,"Opened at 7/1/2016

24 hours daily; keypad activated, instructions on EVSE

&nbsp;",91214,http://egis3.lacounty.gov/lms/?p=81701,publish,34.221141,-118.2303951,2017-01-30T14:03:35.000Z,,6492021.79667573,1902937.55201273
-118.16835015649697,34.059560266743752,143673829,,,Transportation,Alternative Fuel,Electricity Fueling Stations,Los Angeles County - Sheriff,Sheriff - Headquarters (EVSE),4700 Ramona Blvd,,Monterey Park,CA,8am-5pm M-F,323-267-2023,,,County Only,2 charging stations,81699,"Opened at 8/1/2014

8am-5pm M-F; keypad activated, instructions on EVSE",91754,http://egis3.lacounty.gov/lms/?p=81699,publish,34.0595603,-118.1683501,2017-01-30T14:05:00.000Z,,6510679.52215546,1844098.23432414
-118.17425565615315,34.049701466868925,143673830,,,Transportation,Alternative Fuel,Electricity Fueling Stations,Los Angeles County - Sheriff ,Sheriff - Fleet Shop (EVSE),1104 N Eastern Ave,,Los Angeles ,,8am-5pm M-F,323-267-2023,,,Public ,2 charging stations,81697,"Northside wall of Shop

Opened at 8/1/2014

8am-5pm M-F; keypad activated, instructions on EVSE",90063,http://egis3.lacounty.gov/lms/?p=81697,publish,34.0497015,-118.1742556,2017-01-30T14:05:05.000Z,,6508884.61399989,1840513.47935456
-118.175168256068218,34.053287567194353,143673831,,,Transportation,Alternative Fuel,Electricity Fueling Stations,Los Angeles County - Sheriff,Sheriff - Communications Center (EVSE),1275 N Eastern Ave,,Los Angeles,CA,,,,,County Only,2 charging stations,81695,"Opened at 8/1/2014

Permitted employee parking only",90063,http://egis3.lacounty.gov/lms/?p=81695,publish,34.0532876,-118.1751682,2017-01-30T14:05:08.000Z,,6508610.44263221,1841819.0095519
-118.226990556566534,33.938295666881331,143673832,,,Transportation,Alternative Fuel,Electricity Fueling Stations,Los Angeles County - Sheriff,Sheriff - Century Station (EVSE),11705 S Alameda ,,Lynwood,CA,Garage business hours,323-267-2023,,,Public ,2 charging stations,81693,"Opened at 8/1/2014

Garage business hours; pay lot; keypad activated, instructions on EVSE",90059,http://egis3.lacounty.gov/lms/?p=81693,publish,33.9382957,-118.2269905,2017-01-30T14:05:12.000Z,,6492818.56575146,1800002.58793557
-118.263043756123338,33.834435467555366,143673833,,,Transportation,Alternative Fuel,Electricity Fueling Stations,Los Angeles County - Sheriff ,Sheriff - Carson Station (EVSE),21356 S Avalon Blvd,,Carson,CA,24 hours daily,323-267-2023,,,County Only,2 charging stations,81691,"Opened at 7/1/2016

24 hours daily; keypad activated, instructions on EVSE",90745,http://egis3.lacounty.gov/lms/?p=81691,publish,33.8344355,-118.2630437,2017-01-30T14:05:25.000Z,,6481783.8627553,1762232.16347656
-118.551035956235012,34.415508366333192,143673834,,,Transportation,Alternative Fuel,Electricity Fueling Stations,Los Angeles County - Sheriff,Sheriff  - Santa Clarita Station (EVSE),23740 Magic Mountain Pkwy,,Santa Clarita,CA,24 hours daily,323-267-2023,,,County Only,2 charging stations,81689,"Opened at 8/1/2014

24 hours daily; keypad activated, instructions on EVSE",91355,http://egis3.lacounty.gov/lms/?p=81689,publish,34.4155084,-118.5510359,2017-01-30T14:05:30.000Z,,6395480.4054413,1974047.22147289
-117.802142057056784,34.104770167032932,143673835,,,Transportation,Alternative Fuel,Electricity Fueling Stations,Los Angeles County - Sheriff,Sheriff  - San Dimas Station (EVSE),270 S Walnut Ave,,San Dimas ,CA,24 hours daily,323-267-2023,,,County Only,2 charging stations,81687,"Opened at 8/1/2014

24 hours daily; keypad activated, instructions on EVSE",91773,http://egis3.lacounty.gov/lms/?p=81687,publish,34.1047702,-117.802142,2017-01-30T14:05:34.000Z,,6621566.25313747,1860567.22992939
-118.067893856913287,33.915989367172756,143673836,,,Transportation,Alternative Fuel,Electricity Fueling Stations,Los Angeles County - Registrar-Recorder - County Clerk,Registrar-Recorder - County Clerk (EVSE),12400 E Imperial Hwy,,Norwalk ,CA,Business hours,323-267-2023,,,County Only,3 charging stations,81685,"Located in employee parking lot; notify parking attendant when charging

Opened at 8/1/2014

Garage business hours; reserved primarily for employee use; notify attendant before charging",90650,http://egis3.lacounty.gov/lms/?p=81685,publish,33.9159894,-118.0678938,2017-01-30T14:05:38.000Z,,6541070.98368214,1791814.04132056
-118.21252815645397,34.061894266725147,143673837,,,Transportation,Alternative Fuel,Electricity Fueling Stations,Los Angeles County - University of Southern California Medical Center,University of Southern California Medical Center (EVSE),1214 N Mission Rd,,Los Angeles ,CA,,,,,County Only,4 charging stations,81683,"Located in lot 10

Opened at 8/1/2014

Employee use only",90033,http://egis3.lacounty.gov/lms/?p=81683,publish,34.0618943,-118.2125281,2017-01-30T14:05:42.000Z,,6497300.45967481,1844972.97076364
-118.21044575624542,34.053682267012896,143673838,,,Transportation,Alternative Fuel,Electricity Fueling Stations,Los Angeles County - University of Southern California Medical Center,University of Southern California Medical Center (EVSE),Brittania St,,Los Angeles ,CA,323-267-2023,323-267-2023,,,County Only,10 charging stations,81681,"Located in Lot 9 D

Opened at 9/1/2015

24 hours daily; keypad activated, instructions on EVSE",90033,http://egis3.lacounty.gov/lms/?p=81681,publish,34.0536823,-118.2104457,2017-01-30T14:05:46.000Z,,6497924.91315031,1841983.14472231
-118.131974456925121,33.916222867212255,143673839,,,Transportation,Alternative Fuel,Electricity Fueling Stations,Los Angeles County - Probation Department,Probation Department (EVSE),9150 E Imperial Hwy,,Downey,CA,Business hours,323-267-2023,,,County Only,2 charging stations,81679,"Located in front visitor parking lot

Opened at 10/1/2014

Business hours; keypad activated, instructions on EVSE",90242,http://egis3.lacounty.gov/lms/?p=81679,publish,33.9162229,-118.1319744,2017-01-30T14:05:53.000Z,,6521628.70170064,1791918.34590198
-118.445957256551424,34.325909466216224,143673840,,,Transportation,Alternative Fuel,Electricity Fueling Stations,Los Angeles County - Olive View UCLA Medical Center,Olive View UCLA Medical Center - Overflow Lot (EVSE),14445 Olive View Dr,,Sylmar,CA,24 hours daily,323-267-2023,,,Future Site,10 charging stations,81676,"Located in the overflow lot

24 hours daily; keypad activated, instructions on EVSE",91342,http://egis3.lacounty.gov/lms/?p=81676,publish,34.3259095,-118.4459572,2017-01-30T14:05:56.000Z,,6427026.7675453,1941283.58818139
-118.445957256551424,34.325909466216224,143673841,,,Transportation,Alternative Fuel,Electricity Fueling Stations,Los Angeles County - Olive View UCLA Medical Center,Olive View UCLA Medical Center (EVSE),14445 Olive View Dr,,Sylmar,CA,24 hours daily,323-267-2023,,,County Only,4 charging stations,81674,"Located just East of the Sheriff substation. Enter off Cobalt St. Additional chargers located in the overflow lot

Opened at 10/1/2014

24 hours daily; keypad activated, instructions on EVSE",91342,http://egis3.lacounty.gov/lms/?p=81674,publish,34.3259095,-118.4459572,2017-01-30T14:06:00.000Z,,6427026.7675453,1941283.58818139
-118.359229356289873,34.063932266919302,143673842,,,Transportation,Alternative Fuel,Electricity Fueling Stations,Los Angeles County - Museum of Art,Museum of Art (EVSE),5905 Wilshire Blvd,Los Angeles,Los Angeles,CA,,"888-833-2148
323-857-6010",,,County Only,3 charging stations,81672,"Garage entrance on 6th St. Chargers located on first level.

Opened at 4/10/2012

Garage business hours; pay lot",90036,http://egis3.lacounty.gov/lms/?p=81672,publish,34.0639323,-118.3592293,2017-01-30T14:06:05.000Z,,6452870.84446597,1845841.00085172
-118.449266256346206,34.207174366690907,143673843,,,Transportation,Alternative Fuel,Electricity Fueling Stations,Los Angeles County - Mid-Valley Comprehensive Health Center,Mid-Valley Comprehensive Health Center (EVSE),7515 Van Nuys Blvd,,Van Nuys,CA,6am-6pm M-F,"213-972-7211
323-267-2023",,,Future Site,2 charging stations,81670,"Parking structure ground Floor

Opened at 4/1/2015

6am-6pm M-F; keypad activated, instructions on EVSE",91405,http://egis3.lacounty.gov/lms/?p=81670,publish,34.2071744,-118.4492662,2017-01-30T14:06:09.000Z,,6425834.59342048,1898078.59322673
-118.449266256346206,34.207174366690907,143673844,,,Transportation,Alternative Fuel,Electricity Fueling Stations,Los Angeles County - Mid-Valley Comprehensive Health Center,Mid-Valley Comprehensive Health Center (EVSE),7515 Van Nuys Blvd,,Van Nuys,CA,6am-6pm M-F,213-972-7211  323-267-2023,,,County Only,5 charging stations,81668,"Parking structure ground Floor

Opened at 4/1/2015

6am-6pm M-F; keypad activated, instructions on EVSE",91405,http://egis3.lacounty.gov/lms/?p=81668,publish,34.2071744,-118.4492662,2017-01-30T14:06:13.000Z,,6425834.59342048,1898078.59322673
-118.245352256714725,33.923852367340892,143673845,,,Transportation,Alternative Fuel,Electricity Fueling Stations,Los Angeles County - Martin Luther King Hospital ,Martin Luther King Hospital (EVSE),1670 E 120th St,,Los Angeles ,CA,24 hours daily,323-267-2023,,,Future Site,10 charging stations,81666,"Located east of the parking structure

24 hours daily; keypad activated, instructions on EVSE",90059,http://egis3.lacounty.gov/lms/?p=81666,publish,33.9238524,-118.2453522,2017-01-30T14:06:16.000Z,,6487236.1943703,1794759.44947173
-118.245352256714725,33.923852367340892,143673846,,,Transportation,Alternative Fuel,Electricity Fueling Stations,Los Angeles County - Martin Luther King Hospital,Martin Luther King Hospital (EVSE),1670 E 120th St,,Los Angeles ,CA,24 hours daily,323-267-2023,,,County Only,2 charging stations,81664,"Located at loading dock, first driveway East of Compton Ave

Opened at 10/1/2014

24 hours daily; keypad activated, instructions on EVSE

&nbsp;",90059,http://egis3.lacounty.gov/lms/?p=81664,publish,33.9238524,-118.2453522,2017-01-30T14:06:19.000Z,,6487236.1943703,1794759.44947173
-118.442655755827062,33.977852766967672,143673847,,,Transportation,Alternative Fuel,Electricity Fueling Stations,,Marina Lot 77 (EVSE),13560 Mindinao Way,,Marina Del Rey,CA,24 hours daily,323-267-2023 ,,,County Only,2 charging stations,81662,"Opened at 10/1/2014

24 hours daily; keypad activated, instructions on EVSE

&nbsp;",90292,http://egis3.lacounty.gov/lms/?p=81662,publish,33.9778528,-118.4426557,2017-01-30T14:06:23.000Z,,6427465.75551248,1814616.03082147
-118.124681557244415,34.704551666241613,143673848,,,Transportation,Alternative Fuel,Electricity Fueling Stations,Los Angeles County - High Desert Regional Health Center,High Desert Regional Health Center (EVSE),335 E Ave I,,Lancaster ,CA,Business hours,323-881-3919,,,County Only,4 charging stations,81660,"Located in employee parking

Opened at 8/1/2014

Business hours; use buzzer to summon security for access to parking lot",93535,http://egis3.lacounty.gov/lms/?p=81660,publish,34.7045517,-118.1246815,2017-01-30T14:06:26.000Z,,6524197.24380764,2078805.0785578
-118.248158556783366,34.056295066693913,143673849,,,Transportation,Alternative Fuel,Electricity Fueling Stations,Los Angeles County - Hall of Administration,Hall of Administration (EVSE),140 N Grand Ave,,Los Angeles,CA,,,,,Fleet Only,8 charging stations,81633,"Located in Internal Services Department  Lot 18, lower level

Opened at 8/1/2014

Los Angeles County FLEET Only Fleet Area",90012,http://egis3.lacounty.gov/lms/?p=81633,publish,34.0562951,-118.2481585,2017-01-30T14:07:44.000Z,,6486503.82149123,1842960.04926457
-118.152719656640727,34.010837766892529,143673850,,,Transportation,Alternative Fuel,Electricity Fueling Stations,Los Angeles County - Health Services,Health Services (EVSE),5555 Ferguson Dr,,Commerce,CA,24 hours daily,323-267-2023,,,County Only,4 charging stations,81658,"Located in rear parking lot

Opened at 10/1/2014

24 hours daily; keypad activated, instructions on EVSE",90022,http://egis3.lacounty.gov/lms/?p=81658,publish,34.0108378,-118.1527196,2017-01-30T14:08:08.000Z,,6515386.83163847,1826359.61297731
-118.291844755508251,33.830725267664398,143673851,,,Transportation,Alternative Fuel,Electricity Fueling Stations,Los Angeles County - Harbor UCLA Medical Center,Harbor UCLA Medical Center (EVSE),1000 W Carson St,,Torrance,CA,24 hours daily,323-267-2023,,,Future Site,24 charging stations,81655,"Lot D Ground Floor

Opened at 6/30/2017

24 hours daily; keypad activated, instructions on EVSE",90502,http://egis3.lacounty.gov/lms/?p=81655,publish,33.8307253,-118.2918447,2017-01-30T14:08:12.000Z,,6473033.09154297,1760906.07360905
-118.291844755508251,33.830725267664398,143673852,,,Transportation,Alternative Fuel,Electricity Fueling Stations,Los Angeles County - Harbor UCLA Medical Center,Harbor UCLA Medical Center (EVSE),1000 W Carson St,,Torrance,CA,24 hours daily,323-267-2023,,,Future Site,8 charging stations,81653,"Lot D Ground Floor

Opened at 6/30/2017

24 hours daily; keypad activated, instructions on EVSE",90502,http://egis3.lacounty.gov/lms/?p=81653,publish,33.8307253,-118.2918447,2017-01-30T14:08:16.000Z,,6473033.09154297,1760906.07360905
-118.172797356100261,34.051930667102063,143673853,,,Transportation,Alternative Fuel,Electricity Fueling Stations,Los Angeles County - Fire Department,Fire Department Headquarters (EVSE),1320 N Eastern Ave,,Los Angeles,CA,6am-6pm M-F,,,,Future Site,6 charging stations,81651,"Located at the northwestern edge of parking lot

Opened at 6/30/2017

6am-6pm M-F; keypad activated, instructions on EVSE; Fleet use only",90063,http://egis3.lacounty.gov/lms/?p=81651,publish,34.0519307,-118.1727973,2017-01-30T14:08:19.000Z,,6509327.75812672,1841323.96493831
-118.050881357277163,34.144827766890131,143673854,,,Transportation,Alternative Fuel,Electricity Fueling Stations,,Arboretum (EVSE),301 N Baldwin Ave,,Arcadia,CA,24 hours daily,323-267-2023,,,Fleet Only,3 charging stations,81649,"Located in parking lot directly across from Harvard Dr

Opened at 6/1/2014",91007,http://egis3.lacounty.gov/lms/?p=81649,publish,34.1448278,-118.0508813,2017-01-30T14:08:23.000Z,,6546274.81907497,1875089.87345622
-118.236665756916466,34.700500665947288,143673855,,,Transportation,Alternative Fuel,Electricity Fueling Stations,Los Angeles County - Internal Services ,"Internal Services Shop, Mira Loma (EVSE)",45000 N 60th St W,,Lancaster,CA,7am-4pm M-F,323-267-2023,,,County Only,1 charging stations,81647,"Opened at 8/1/2014

7am-4pm M-F; keypad activated, instructions on EVSE",93536,http://egis3.lacounty.gov/lms/?p=81647,publish,34.7005007,-118.2366657,2017-01-30T14:08:28.000Z,,6490536.9259578,2077391.29103106
-118.17425565615315,34.049701466868925,143673856,,,Transportation,Alternative Fuel,Electricity Fueling Stations,Los Angeles County - Internal Services ,Internal Services Shop (EVSE),1104 N Eastern Ave,,Los Angeles ,CA,,,,,Fleet Only,6 charging stations,81645,"Opened at 8/1/2014

Los Angeles County fleet use only",90063,http://egis3.lacounty.gov/lms/?p=81645,publish,34.0497015,-118.1742556,2017-01-30T14:08:31.000Z,,6508884.61399989,1840513.47935456
-117.987391256866914,34.132765066712352,143673857,,,Transportation,Alternative Fuel,Electricity Fueling Stations,Los Angeles County - Internal Services,Internal Services Shop (EVSE),1703 Mountain Ave,,Monrovia,CA,7am-4pm M-F,323-267-2023,,,County Only,2 charging stations,81643,"Opened at 5/26/2016

7am-4pm M-F; keypad activated, instructions on EVSE",91016,http://egis3.lacounty.gov/lms/?p=81643,publish,34.1327651,-117.9873912,2017-01-30T14:08:36.000Z,,6565486.00998323,1870696.37929048
-118.17409605606484,34.051670867287676,143673858,,,Transportation,Alternative Fuel,Electricity Fueling Stations,Los Angeles County - Internal Services Department,Internal Services Department Telecomm (EVSE),1110 N Eastern Ave,,Los Angeles ,CA,6am-6pm M-F,323-267-2023,,,County Only,4 charging stations,81641,"Opened at 8/1/2014

6am-6pm M-F; keypad activated, instructions on EVSE",90063,http://egis3.lacounty.gov/lms/?p=81641,publish,34.0516709,-118.174096,2017-01-30T14:08:40.000Z,,6508934.20149913,1841230.09767197
-118.175893456608918,34.049310366838718,143673859,,,Transportation,Alternative Fuel,Electricity Fueling Stations,Los Angeles County - Internal Services Department,Internal Services Department Headquarters (EVSE),1102 N Eastern Ave,,Los Angeles ,CA,6am-6pm M-Th,323-267-2023,,,Public ,4 charging stations,81639,"Located in lot 81

Opened at 8/1/2014

6am-6pm M-Th; keypad activated, instructions on EVSE",90063,http://egis3.lacounty.gov/lms/?p=81639,publish,34.0493104,-118.1758934,2017-01-30T14:08:44.000Z,,6508388.24097688,1840372.01474248
-118.248158556783366,34.056295066693913,143673860,,,Transportation,Alternative Fuel,Electricity Fueling Stations,Los Angeles County - Hall of Administration,Hall of Administration (EVSE),140 N Grand Ave,,Los Angeles ,CA,,,,,County Only,4 charging stations,81637,"Located in Internal Services Department  Lot 18, upper level

Opened at 8/1/2014

Permitted Employee parking Only Lower Level; keypad activated, instructions on EVSE",90012,http://egis3.lacounty.gov/lms/?p=81637,publish,34.0562951,-118.2481585,2017-01-30T14:08:50.000Z,,6486503.82149123,1842960.04926457
-118.248158556783366,34.056295066693913,143673861,,,Transportation,Alternative Fuel,Electricity Fueling Stations,Los Angeles County - Hall of Administration,Hall of Administration (EVSE),140 N Grand Ave,,Los Angeles ,CA,,,,,County Only,4 charging stations,81635,"Located in Internal Services Department  Lot 18, upper level

Opened at 8/1/2014

Permitted Employee parking Only Upper Level; keypad activated, instructions on EVSE",90012,http://egis3.lacounty.gov/lms/?p=81635,publish,34.0562951,-118.2481585,2017-01-30T14:08:54.000Z,,6486503.82149123,1842960.04926457
-118.273681056070572,34.026055866786706,143673862,,,Transportation,Alternative Fuel,Electricity Fueling Stations,Los Angeles County - Department of Public Social Services,Department of Public Social Services - County Auto Park Lot 46 (EVSE),318 W Adams Blvd,,Los Angeles,CA,,,,,County Only,2 charging stations,81631,"Opened at 6/15/2015

Permitted employee parking only; keypad activated, instructions on EVSE",90007,http://egis3.lacounty.gov/lms/?p=81631,publish,34.0260559,-118.273681,2017-01-30T14:10:13.000Z,,6478743.18478155,1831975.51775597
-117.753928757847717,34.05275016762301,143673863,,,Transportation,Alternative Fuel,Electricity Fueling Stations,Los Angeles County - Department of Public Health,Department of Public Health (EVSE),750 S Park,,Pomona,CA,6am-6pm M-F,,,,Future Site,2 charging stations,81629,"Located behind the building

Opened at 8/30/2016

